name1,name2,street1,street2,city,state,zip,zip4,phone,website,latitude,longitude,mh,psy,omh,cmhc,msnh,tt,sma,smi,ptsd,coot,imr,prs,sps,,,,,,,,,,,,,,,,,,,,,,,
Providence Kodiak Island,Counseling Center,717 East Rezanof Drive,,Kodiak,AK,99615,,907-481-2400,http://,57.792146,-152.395902,1,,1,,,1,,1,,1,,1,1,,,,,,,,,,,,,,,,,,,,,,,
Hill House,,606 Hill Road,,Ketchikan,AK,99901,,907-225-4664 x4,http://,55.359665,-131.689212,1,,,,,,,,,,,,,,,,,,,,,,,,,,,,,,,,,,,
PeaceHealth Ketchikan Medical Center,,3100 Tongass Avenue,,Ketchikan,AK,99901,,907-228-8140 x7301,http://www.peacehealth.org,55.3535001,-131.6866322,1,,1,,,1,,,,1,1,,1,,,,,,,,,,,,,,,,,,,,,,,
Community Connections,,1800 CK Highway,Suite 241,Craig,AK,99921,,907-826-3891,http://www.comconnections.org/,55.476389,-133.148333,1,,,1,,1,,,,1,,1,,,,,,,,,,,,,,,,,,,,,,,,
Akeela Gateway Ctr for Human Services,,3050 5th Avenue,,Ketchikan,AK,99901,,907-225-4135,http://www.akeela.us/,55.3539953,-131.685073,1,,,1,,1,,1,,1,1,1,1,,,,,,,,,,,,,,,,,,,,,,,
Community Connections,,721 Stedman Street,,Ketchikan,AK,99901,,907-225-7825,http://www.comconnections.org,55.338278,-131.634657,1,,,1,,1,,,,,,1,,,,,,,,,,,,,,,,,,,,,,,,
Gateway Center for Human Services,Akeela Inc,3050 Fifth Avenue,,Ketchikan,AK,99901,,907-225-4135,http://akeela.org,55.3540246,-131.6851732,1,,,1,,1,,1,,1,,1,,,,,,,,,,,,,,,,,,,,,,,,
Sitka Counseling and Prevention Servs,,113 Metlakatla Street,,Sitka,AK,99835,,907-747-3636,http://www.scpsak.org,57.0486831,-135.3199759,1,,,1,,1,,1,1,1,,1,,,,,,,,,,,,,,,,,,,,,,,,
Alaska Island Community Services,SEARHC,333 Church Street,,Wrangell,AK,99929,,907-874-2373,http://www.akics.org/,56.470784,-132.3794518,1,,,1,,1,,,,1,,1,,,,,,,,,,,,,,,,,,,,,,,,
Juneau Youth Services Inc,Light House,8460 Rainbow Row,,Juneau,AK,99801,,907-789-7610,http://www.jys.org/lighthouse.php,58.3827,-134.565,1,,,,,1,,,,,,1,,,,,,,,,,,,,,,,,,,,,,,,
Juneau Youth Services Inc,Montana Creek,10801 Black Bear Road,,Juneau,AK,99801,,907-523-6770,http://www.jys.org,58.397,-134.601,1,,,,,1,,,,,,1,1,,,,,,,,,,,,,,,,,,,,,,,
Co Occurring Disorders Institute Inc,,11921 East Palmer Wasilla Highway,,Palmer,AK,99645,,907-745-2634,http://www.codialaska.org/,61.600275,-149.150782,1,,1,,,1,,,,1,,1,,,,,,,,,,,,,,,,,,,,,,,,
Youth Advocates of Sitka,,805 Lincoln Street,,Sitka,AK,99835,,907-747-3687,http://www.sitkayouth.org,57.050435,-135.323327,1,,1,,,1,,,,,,1,1,,,,,,,,,,,,,,,,,,,,,,,
NeuroBehavioral Consultants LLC,,300 Harbor Drive,,Sitka,AK,99835,,907-747-3743,http://,57.0500798,-135.3330126,1,,1,,,1,,,1,,1,1,1,,,,,,,,,,,,,,,,,,,,,,,
Petersburg Mental Health Services,,201 North Nordic Drive,,Petersburg,AK,99833,,907-772-3332,http://www.raincountry.org,56.812567,-132.957614,1,,,1,,1,,,1,,,1,1,,,,,,,,,,,,,,,,,,,,,,,
Timberline House,,1962 Lemon Creek Road,,Juneau,AK,99801,,907-463-6829,http://www.jamhi.org,58.361,-134.49,1,,,,,1,,1,1,,,1,1,,,,,,,,,,,,,,,,,,,,,,,
Juneau Alliance for Mental Health Inc,,3406-A Glacier Highway,,Juneau,AK,99801,,907-463-3303,http://www.jamhi.org,58.3319,-134.471,1,,,1,,1,,1,1,1,,1,1,,,,,,,,,,,,,,,,,,,,,,,
Juneau Youth Services Inc,Montana Creek,2075 Jordan Avenue,Suite 101,Juneau,AK,99801,,907-789-7610,http://www.jys.org,58.362066,-134.580123,1,,,,,1,,,,1,,1,1,,,,,,,,,,,,,,,,,,,,,,,
Cornerstone,Juneau Youth Services,9290 Hurlock Avenue,,Juneau,AK,99801,8007,907-789-7654,http://www.jys.org/cornerstone.php,58.3689774,-134.586125,1,,,,,1,,,,,,1,1,,,,,,,,,,,,,,,,,,,,,,,
Juneau Youth Services Inc,Miller House,10685 Mendenhall Loop Road,,Juneau,AK,99801,,907-789-7610,http://www.jys.org/millerhouse.php,58.398411,-134.609566,1,,,,,,,,,,,1,,,,,,,,,,,,,,,,,,,,,,,,
Salmon Creek Lodge,,3406 Glacier Highway,Building D,Juneau,AK,99801,,907-463-6885,http://www.jamhi.org,58.3319,-134.471,1,,,,,,,1,,,,,1,,,,,,,,,,,,,,,,,,,,,,,
Juneau Youth Services Inc,Wallington House,2461 Oday Drive,,Juneau,AK,99801,,907-789-7610,http://www.jys.org,58.3684,-134.585,1,,,,,1,,,,,1,1,,,,,,,,,,,,,,,,,,,,,,,,
SE Alaska Regional Health Consortium,Juneau Behavioral Health,1046 Salmon Creek Lane,,Juneau,AK,99801,,907-364-4445,http://www.searhc.org,58.3302,-134.468,1,,,1,,1,,1,1,1,,,1,,,,,,,,,,,,,,,,,,,,,,,
National Council on Alc and Drug Dep,,211 4th Street,Suite 102,Juneau,AK,99801,,907-463-3755,http://www.ncaddjuneau.org,58.302191,-134.4094811,1,,1,,,1,,,,1,,,,,,,,,,,,,,,,,,,,,,,,,,
TCC Upper Tanana Behavioral Health,,West C Street and Willow,Unit A,Tok,AK,99780,,907-883-5107,http://,63.3296447,-143.0038307,1,,1,,,1,,,1,1,,,1,,,,,,,,,,,,,,,,,,,,,,,
Norton Sound Health Corporation,Behavioral Health Services,607 Division Street,,Nome,AK,99762,,907-443-3344,http://nortonsoundhealth.org,64.5003046,-165.4061628,1,,1,,,1,,,,1,,1,1,,,,,,,,,,,,,,,,,,,,,,,
Maniilaq Association,Putyuk Childrens Home,572 Friends Way,,Kotzebue,AK,99752,,907-442-7581,http://www.maniilaq.org/social-services,66.899496,-162.5930294,1,,,,,1,,,,,,1,1,,,,,,,,,,,,,,,,,,,,,,,
Maniilaq Counseling and Recovery Ctr,,733 2nd Avenue,,Kotzebue,AK,99752,,907-442-7640,http://www.maniilaq.org/social-services,66.902503,-162.582547,1,,,1,,1,,,,1,,1,1,,,,,,,,,,,,,,,,,,,,,,,
Council of Athabascan Tribal Govt,,101 Spruce Street,,Fort Yukon,AK,99740,,907-662-2587,http://www.catg.org/,66.566486,-145.243743,1,,,1,,1,,,,1,,1,1,,,,,,,,,,,,,,,,,,,,,,,
Gathering Place,,5326 Laura Madison Street,,Barrow,AK,99723,,907-852-0402,http://,71.299476,-156.755859,1,,,1,,1,,1,,,1,1,1,,,,,,,,,,,,,,,,,,,,,,,
Matsutani Community Resource Center,,1402 Nachik Street,P.O. Box 69,Barrow,AK,99723,,907-852-0366,http://,71.2904653,-156.7884316,1,,,1,,1,,,,1,1,1,1,,,,,,,,,,,,,,,,,,,,,,,
North Slope Borough,Integrated Behavioral Health,5200 Karluk Street,,Barrow,AK,99723,,907-852-0366,http://,71.2999212,-156.7590963,1,,,1,,1,,,,1,1,1,1,,,,,,,,,,,,,,,,,,,,,,,
Family Centered Services of Alaska,,1825 Marika Road,,Fairbanks,AK,99709,5521,907-474-0890,http://www.familycenteredservices.com/,64.854257,-147.763494,1,,1,,,1,,,,1,,1,1,,,,,,,,,,,,,,,,,,,,,,,
Tanana Chiefs Conference,Behavioral Health,122 1st Avenue,Suite 600,Fairbanks,AK,99701,,907-452-8251 x3800,http://,64.8444465,-147.7089204,1,,,1,,1,,,,,,,1,,,,,,,,,,,,,,,,,,,,,,,
Fairbanks Community Mental,Health Services,3830 Cushman Street,,Fairbanks,AK,99701,,907-371-1300,http://www.acmhs.com/fairbanks-community-mental-health-services,64.809517,-147.713214,1,,1,,,1,,1,,,,1,1,,,,,,,,,,,,,,,,,,,,,,,
Daybreak Inc,,550 South Alaska Street,Suite 202,Palmer,AK,99645,,907-746-6019,http://www.daybreakmhsc.com/,61.6018308,-149.1153167,1,,1,,,,,1,1,1,,1,,,,,,,,,,,,,,,,,,,,,,,,
Fairbanks Memorial Hospital,Behavioral Health,1650 Cowles Street,,Fairbanks,AK,99701,,907-452-8181,http://www.bannerhealth.com/,64.833887,-147.739444,1,1,,,,,,,,,,,,,,,,,,,,,,,,,,,,,,,,,,
Presbyterian Hospitality House,,209 Forty Mile Avenue,Suite 100,Fairbanks,AK,99701,3110,907-456-6445,http://www.phhalaska.org,64.846821,-147.703496,1,,,,1,1,,1,1,,,1,1,,,,,,,,,,,,,,,,,,,,,,,
Family Centered Services of Alaska,,3101 Lathrop Street,,Fairbanks,AK,99701,,907-459-4700,http://www.familycenteredservices.com,64.818752,-147.7423839,1,,,,,1,,,1,,,1,1,,,,,,,,,,,,,,,,,,,,,,,
Yakutat Counseling,,364 Ridge Road,,Yakutat,AK,99689,,907-784-3639,http://scpsak.org,59.5519568,-139.7385686,1,,,1,,1,,1,1,,,,,,,,,,,,,,,,,,,,,,,,,,,
Providence Valdez Counseling Center,,911 Meals Avenue,,Valdez,AK,99686,,907-835-2838,http://alaska.providence.org,61.136845,-146.349571,1,,1,,,1,,1,1,1,,,1,,,,,,,,,,,,,,,,,,,,,,,
Peninsula Comm Hlth Servs of Alaska,,230 East Marydale Avenue,,Soldotna,AK,99669,,907-260-7300,http://www.pchsak.org,60.4954283,-151.0644237,1,,,1,,1,,1,,1,,1,,,,,,,,,,,,,,,,,,,,,,,,
Seaview Community Services,,302 Railway Avenue,,Seward,AK,99664,,907-224-5257 x1041,http://www.seaviewseward.org,60.1005182,-149.4417466,1,,,1,,1,,,,1,,1,,,,,,,,,,,,,,,,,,,,,,,,
Eastern Aleutian Tribes Inc,,172 Red Cove Road,,Sand Point,AK,99661,,907-383-3151 x604,http://www.eatribes.org,55.3520713,-160.4773267,1,,1,,,,,,,1,1,,1,,,,,,,,,,,,,,,,,,,,,,,
Wasilla Behavioral Health Services,,301 East Danna Avenue,,Wasilla,AK,99654,,907-357-7519,http://www.familycenteredservices.com,61.586724,-149.443968,1,,,1,,1,,,,1,,1,1,,,,,,,,,,,,,,,,,,,,,,,
Ninilchik Traditional Council,,15765 Kingsley Road,,Ninilchik,AK,99639,,907-567-3370,http://,60.043437,-151.667195,1,,1,,,1,,,,1,1,,1,,,,,,,,,,,,,,,,,,,,,,,
Mat Su Health Services,,1363 West Spruce Avenue,,Wasilla,AK,99654,,907-376-2411,http://mshsak.org,61.601352,-149.485868,1,,,1,,1,,1,1,1,1,1,1,,,,,,,,,,,,,,,,,,,,,,,
Anchorage Comm Mental Health Services,,1432 Ingra Street,,Anchorage,AK,99501,,907-562-7900,http://www.acmhs.com,61.2081663,-149.8672737,1,,,1,,1,,,,1,,1,1,,,,,,,,,,,,,,,,,,,,,,,
Providence Adolescent,Residential Treatment Center,3210 West 62nd Avenue,,Anchorage,AK,99502,,907-212-2040,http://www.alaska.providence.org,61.1645247,-149.939064,1,,,,,1,,,1,,,1,1,,,,,,,,,,,,,,,,,,,,,,,
Denali Family Services,,291 East Swanson Street,,Wasilla,AK,99654,,907-274-8281,http://www.denalifs.org/,61.5833834,-149.4441449,1,,,1,,1,,,,,,1,,,,,,,,,,,,,,,,,,,,,,,,
Greatland Clinical Associates LLC,,1400 West Benson Boulevard,Suite 315,Anchorage,AK,99503,,907-929-4009,http://www.greatlandclinicalassociates.com,61.193134,-149.90906,1,,1,,,1,,,,,,,,,,,,,,,,,,,,,,,,,,,,,,
Akeela Inc,,360 West Benson Boulevard,Suite 300,Anchorage,AK,99503,,907-433-7080,http://www.akeela.us,61.193883,-149.889832,1,,1,,,1,,1,1,1,,,1,,,,,,,,,,,,,,,,,,,,,,,
Denali Family Services,,1251 Muldoon Road,Suite 116,Anchorage,AK,99504,,907-274-8281,http://www.denalifs.org,61.210668,-149.730548,1,,,1,,1,,,,,,1,,,,,,,,,,,,,,,,,,,,,,,,
AK Child and Family,,4600 Abbott Road,,Anchorage,AK,99507,,907-346-2101,http://www.AKChild.org,61.136565,-149.794464,1,,,,,1,,1,1,,1,1,1,,,,,,,,,,,,,,,,,,,,,,,
North Star DeBarr Hospital,,2530 DeBarr Road,,Anchorage,AK,99508,,907-258-7575,http://www.northstarbehavioralhealth.com,61.207922,-149.833549,1,1,,,,1,,,,,,,,,,,,,,,,,,,,,,,,,,,,,,
Providence Health and Servs/Washington,DBA Providence Behavioral Medicine,3760 Piper Street,Suite 1108,Anchorage,AK,99508,,907-212-6900,http://,61.1859228,-149.8262928,1,,1,,,1,,,1,,,,,,,,,,,,,,,,,,,,,,,,,,,
Chris Kyle Patriots Hospital,,1650 Bragaw Street,,Anchorage,AK,99508,3435,907-272-6206,http://www.chriskylepatriotshospital.com,61.2056055,-149.8098303,1,1,,,,1,,,,,,,1,,,,,,,,,,,,,,,,,,,,,,,
Arc of Anchorage,,2211 Arca Drive,,Anchorage,AK,99508,,907-277-6677,http://www.thearcofanchorage.org,61.2008442,-149.8169018,1,,,,1,1,,,,,,1,,,,,,,,,,,,,,,,,,,,,,,,
Good Samaritan Psychiatric Services,,1650 South Bragaw Street,,Anchorage,AK,99508,,907-264-3595,http://www.goodsamak.com,61.2056056,-149.8098304,1,,1,,,,,,,,,,,,,,,,,,,,,,,,,,,,,,,,,
North Star DeBarr RTC,,1500 Debarr Circle,,Anchorage,AK,99508,2984,907-865-7100,http://northstarbehavioral.com/,61.208966,-149.830782,1,1,,,,1,,,1,,,1,1,,,,,,,,,,,,,,,,,,,,,,,
Denali Cove Counseling Center,,1565 Bragaw Street,Suite 201,Anchorage,AK,99508,,907-222-2436,http://,61.207089,-149.807595,1,,1,,,,,,1,1,,,1,,,,,,,,,,,,,,,,,,,,,,,1
Alaska Native Medical Center,,4320 Diplomacy Drive,,Anchorage,AK,99508,,907-729-2500,http://www.southcentralfoundation.com,61.181415,-149.79982,1,1,,,,1,,,1,,1,,1,,,,,,,,,,,,,,,,,,,,,,,
Aleutian Pribilof Islands Association,,1131 East International Airport Road,,Anchorage,AK,99518,,907-276-2700,http://www.apiai.org/services/health-care/behavioral-health/,61.1744418,-149.8611637,1,,1,,,1,,,,1,,,1,,,,,,,,,,,,,,,,,,,,,,,
Hope Community Resources,,540 West International Airport Road,Suite 100,Anchorage,AK,99518,,907-561-5335 x4901,http://www.hopealaska.org,61.17322,-149.893212,1,,,1,,1,,,,,,1,1,,,,,,,,,,,,,,,,,,,,,,,
Denali Family Services,,6401 A Street,,Anchorage,AK,99518,,907-274-8281,http://www.denalifs.org,61.162639,-149.880118,1,,,1,,1,,,,,,1,,,,,,,,,,,,,,,,,,,,,,,,
Providence Alaska Medical Center,Behavioral Health/4W,3200 Providence Drive,,Anchorage,AK,99519,4615,907-212-3090,http://www.providence.org,61.1880195,-149.8210696,1,1,,,,,,,,,,,1,,,,,,,,,,,,,,,,,,,,,,,
Yukon Kuskokwim Health Corporation,,829 Eddie Hoffman Highway,,Bethel,AK,99559,,907-543-6100,http://www.ykhc.org,60.7930981,-161.7519895,1,,1,,,1,,1,1,1,,,1,,,,,,,,,,,,,,,,,,,,,,,1
McCann Treatment Center,,5016 Noel Polty Boulevard,,Bethel,AK,99559,,907-543-6800,http://,60.7693611,-161.8734954,1,,,,,1,,,1,,,1,1,,,,,,,,,,,,,,,,,,,,,,,1
Copper River Native Association,,Mile 111.5 Old Richardson Highway,,Copper Center,AK,99573,,907-822-5241 x254,http://www.crnative.org,61.980686,-145.326135,1,,,1,,1,,,,1,,1,1,,,,,,,,,,,,,,,,,,,,,,,
Sound Alternatives,Cordova Community Medical Clinic,602 Chase Avenue,,Cordova,AK,99574,,907-424-8300,http://www.cdvcmc.com/,60.541128,-145.750323,1,,,1,,1,,,,1,,1,1,,,,,,,,,,,,,,,,,,,,,,,
Bristol Bay Area Health Corporation,,6000 Kanakanak Road,,Dillingham,AK,99576,,907-842-5201,http://BBAHC.org,59.0000942,-158.5355047,1,,,1,,1,,1,1,1,,1,1,,,,,,,,,,,,,,,,,,,,,,,1
South Peninsula Behav Health Services,The Center,3948 Ben Walters Lane,,Homer,AK,99603,,907-235-7701,http://www.spbhs.org,59.648155,-151.518014,1,,,1,,1,,1,,,,1,,,,,,,,,,,,,,,,,,,,,,,,
North Star Palmer RTC,Summit Program,3647 North Clark Wolverine Road,,Palmer,AK,99645,,907-761-7400,http://www.northstarbehavioral.com,61.623299,-149.067535,1,,,,,1,,,1,,1,1,1,,,,,,,,,,,,,,,,,,,,,,,
Summit of North Star Behavioral Health,,Mile 2.5 Clark Wolverine Road,,Palmer,AK,99645,,907-761-7403,http://,61.6552872,-149.0575982,1,,,,,1,,,,,,,1,,,,,,,,,,,,,,,,,,,,,,,
Kenaitze Indian Tribe,Denaina Wellness Center,508 Upland Street,,Kenai,AK,99611,8026,907-335-7500,http://www.kenaitze.org/index.php/dwc-menu,60.553266,-151.260875,1,,1,,,1,,,1,1,1,,1,,,,,,,,,,,,,,,,,,,,,,,1
Kenai VA CBOC,,11312 Kenai Spur Highway,Suite 39,Kenai,AK,99611,,907-395-4100 x4104,http://www.moss.anchorage.med.va.gov/Pages/default.aspx,60.5557363,-151.2557233,1,,,,,1,,,,1,1,,1,,,,,,,,,,,,,,,,,,,,,,,
Kenai Peninsula Community Care Center,Hardy House,320 South Spruce Street,,Kenai,AK,99611,,907-283-7635,http://www.kpccc.com,60.5565883,-151.2702254,1,,,,,1,,,,,,,,,,,,,,,,,,,,,,,,,,,,,,
Kenai Peninsula Community Care Center,Dimmick Retreat,320 South Spruce Street,,Kenai,AK,99611,,907-283-7635,http://www.kpccc.com,60.5559385,-151.2722895,1,,,,,1,,,,,,,,,,,,,,,,,,,,,,,,,,,,,,
King Cove CHC,,100 Slocum Drive,,King Cove,AK,99612,,907-497-2311,http://,55.0766518,-162.2889945,1,,1,,,,,,,,,,1,,,,,,,,,,,,,,,,,,,,,,,
Kodiak Area Native Association,,3449 East Rezanof Drive,,Kodiak,AK,99615,,907-486-9800,http://kodiakhealthcare.org,57.8117901,-152.3551107,1,,,1,,1,,,,1,1,,1,,,,,,,,,,,,,,,,,,,,,,,
Child and Adolescent and Adult,Outpatient Clay County,88217 Highway 9,,Lineville,AL,36266,,256-396-2150,http://crmh.org,33.30882,-85.7578133,1,,,1,,1,,1,1,1,,,1,,,,,,,,,,,,,,,,,,,,,,,
Crenshaw Community Hospital,Special Sevices Unit,101 Hospital Circle,,Luverne,AL,36049,7329,334-335-1175,http://crenshawcommunityhospital.com,31.716546,-86.263849,1,1,,,,,,,1,,,1,,,,,,,,,,,,,,,,,,,,,,,,
Montgomery Area MH Authority,Autauga County Satellite Office,1595 East Main Street,Suite B,Prattville,AL,36066,5509,334-279-7830 x7401,http://www.mamha.org,32.4610327,-86.4292175,1,,1,,,1,,,,1,,,1,,,,,,,,,,,,,,,,,,,,,,,
Community Hospital,,805 Friendship Road,,Tallassee,AL,36078,,334-283-6541 x3870,http://www.chal.org/,32.534053,-85.912363,1,1,,,,,,,1,,,,,,,,,,,,,,,,,,,,,,,,,,,
Bullock County Hospital ,,102 West Conecuh Avenue,,Union Springs,AL,36089,1303,334-738-2140,http://www.unionspringsalabama.com/,32.1461159,-85.7138547,1,1,,,,,,1,1,,,,1,,,,,,,,,,,,,,,,,,,,,,,
Montgomery Area MH Authority,Hillside Mental Health Center,8721 U.S. Highway 231,,Wetumpka,AL,36092,,334-279-7830 x7601,http://,32.5622042,-86.1929363,1,,,,,,,1,,,,1,,,,,,,,,,,,,,,,,,,,,,,,
Jackson Hospital,Montgomery County Assessment Center,917 Olive Street,,Montgomery,AL,36106,,334-279-7830 x7721,http://www.mamha.org,32.36961,-86.285481,1,,,,,,,1,,,,1,1,,,,,,,,,,,,,,,,,,,,,,,
Montgomery Area MH Authority,Adolescent Total Care,112 Coliseum Boulevard,,Montgomery,AL,36109,,334-279-7830 x7301,http://www.mamha.org,32.3874444,-86.2570246,1,,1,,,,,,,,,,1,,,,,,,,,,,,,,,,,,,,,,,
Montgomery Area MH Authority,Beth Manor Crisis Residential Facility,3948 Beth Manor Drive,,Montgomery,AL,36109,,334-279-7830 x7621,http://mamha.org,32.364987,-86.2432454,1,,,,,1,,1,,,,1,1,,,,,,,,,,,,,,,,,,,,,,,
Baptist Medical Center South,Crossbridge Behavioral Health,4385 Narrow Lane Road,,Montgomery,AL,36116,,334-286-5360,http://www.Baptistfirst.org,32.32298,-86.282032,1,1,,,,,,,,,1,,,,,,,,,,,,,,,,,,,,,,,,,
Grandview Behavioral Health Center,,1302 Noble Street ,Suite 3-F,Anniston,AL,36201,,256-237-4755,http://www.mtnviewhospital.com,33.6611999,-85.8298136,1,,1,,,,,,,,,,1,,,,,,,,,,,,,,,,,,,,,,,
Birmingham VAMC,Anniston Oxford Clinic,96 Ali Way Creekside Street,,Oxford,AL,36203,,256-832-4141,http://www.birmingham.va.gov,33.6165217,-85.8267226,1,,1,,,1,,,,1,,,1,1,,,,,,,,,,,,,,,,,,,,,,
Northeast Alabama Regional Medical Ctr,Behavioral Health,400 East 10th Street,,Anniston,AL,36207,4716,256-235-5121,http://rmccares.org,33.656992,-85.823558,1,1,,,,,,,,,,,1,,,,,,,,,,,,,,,,,,,,,,,
Highland Health Systems,,331 East 8th Street,,Anniston,AL,36207,,256-236-3403,http://www.ccmhc.net,33.6548442,-85.8234268,1,,,1,,1,1,1,1,1,,1,1,,,,,,,,,,,,,,,,,,,,,,,
Highland Health Systems,Outpatient Satellite,150 Tompkins Street,,Heflin,AL,36264,,256-463-2969,http://www.ccmhc.net,33.6248609,-85.5969052,1,,,1,,1,1,,,1,,,1,,,,,,,,,,,,,,,,,,,,,,,
Regional Medical Center/Jacksonville,,1701 Pelham Road South,P.O. Box 999,Jacksonville,AL,36265,,256-435-4970,http://www.rmccares.org,33.784545,-85.762973,1,1,,,,,,,1,,,1,1,,,,,,,,,,,,,,,,,,,,,,,
Highland Health Systems,Jacksonville Mental Health,614 Pelham Road South,,Jacksonville,AL,36265,,256-435-5502,http://,33.8089539,-85.7613726,1,,,1,,1,1,1,1,1,,,,,,,,,,,,,,,,,,,,,,,,,,
Randolph County Satellite Office,AltaPointe Sylacauga Region,706 Main Street,,Roanoke,AL,36274,,334-863-2518,http://www.altapointe.org,33.1508869,-85.3698165,1,,1,,,1,,,,1,1,1,,,,,,,,,,,,,,,,,,,,,,,,
Laurel Oaks Behavioral Health Center,,700 East Cottonwood Road,,Dothan,AL,36301,,334-794-7373 x237,http://www.laureloaksbhc.com,31.203702,-85.38462,1,1,,,,,,,,,,,,,,,,,,,,,,,,,,,,,,,,,,
Southeast Alabama Medical Center,Behavioral Medicine Center,1108 Ross Clark Circle,,Dothan,AL,36301,,334-793-8111 x8977,http://samc.org,31.216725,-85.363068,1,1,,,,,,1,,,1,,,,,,,,,,,,,,,,,,,,,,,,,
SpectraCare,Houston Adult Outpatient Program,1672 Columbia Highway,,Dothan,AL,36302,,800-951-4357,http://Spectracare.org,31.2210503,-85.3669091,1,,,1,,1,,1,,1,,,1,,,,,,,,,,,,,,,,,,,,,,,
SpectraCare,Henry County Clinic,219 Dothan Road,,Abbeville,AL,36310,,334-585-5331,http://spectracare.org,31.553463,-85.252491,1,,,1,,1,,1,1,1,1,1,1,,,,,,,,,,,,,,,,,,,,,,,
Henry County Day Treatment,,403 Dothan Road,,Abbeville,AL,36310,,800-951-4357,http://www.spectracare.org,31.551296,-85.252547,1,,,1,,,,1,1,1,1,1,1,,,,,,,,,,,,,,,,,,,,,,,
Cottonwood Specialized Care CRF (DMHF),,1539 Sweetie Smith Road,,Ashford,AL,36312,,334-691-8030,http://Spectracare.org,31.10588,-85.274337,1,,,,,1,,1,,1,,1,1,,,,,,,,,,,,,,,,,,,,,,,
South Central Alabama CMHC,Coffee County Day Mental Health Clinic,2861 Neal Metcalf Road,,Enterprise,AL,36330,,334-347-0212,http://www.scamhc.org,31.36058,-85.867069,1,,,1,,,1,1,,1,1,,,,,,,,,,,,,,,,,,,,,,,,,
SpectraCare,Geneva County Clinic,1203 West Maple Avenue,,Geneva,AL,36340,,334-684-9615,http://Spectracare.org,31.0481016,-85.890651,1,,,1,,1,,1,1,1,1,,1,,,,,,,,,,,,,,,,,,,,,,,
SpectraCare,Dale County/Clinic and Day Treatment,134 Katherine Avenue,,Ozark,AL,36360,,800-951-4357,http://www.spectracare.org,31.45391,-85.6335988,1,,,1,,,,1,1,1,1,1,1,,,,,,,,,,,,,,,,,,,,,,,
Dale Medical Center,New Day Psychiatric Unit,126 Hospital Avenue,,Ozark,AL,36360,,334-774-7352,http://,31.451328,-85.632075,1,1,,,,,,1,,,,,,,,,,,,,,,,,,,,,,,,,,,,
SpectraCare,Houston County/Rehab Day Program,6154 Old Webb Road,,Webb,AL,36376,4200,334-678-7162,http://www.spectracare.org,31.2516481,-85.2978605,1,,,1,,1,,1,,1,1,,1,,,,,,,,,,,,,,,,,,,,,,,
South Central Alabama CMHC,,19815 Bay Branch Road,,Andalusia,AL,36420,,334-222-2523,http://www.scamhc.org,31.308504,-86.483291,1,,,1,,1,,1,,1,1,,1,,,,,,,,,,,,,,,,,,,,,,,
Rehab Day Montezuma Complex  ,Covington County,205 Academy Drive,,Andalusia,AL,36420,,334-428-5050,http://www.scamhc.org,31.314019,-86.450831,1,,,1,,,,1,,1,1,,,,,,,,,,,,,,,,,,,,,,,,,
Southern Oaks,Grove Hill Memorial Hospital,295 South Jackson Street,,Grove Hill,AL,36451,,251-275-4922,http://grovehillmemorial.org/department.php?Southern-Oaks-8,31.695007,-87.7772891,1,1,,,,,,,,,,,,,,,,,,,,,,,,,,,,,,,,,,
Mizell Memorial Hospital,Senior Care Behavioral Unit,702 Main Street,,Opp,AL,36467,1626,334-493-9134,http://www.mizellmh.com,31.2220879,-86.1725231,1,1,,,,1,,,,,,,,,,,,,,,,,,,,,,,,,,,,,,
SpectraCare,Geneva County Day Treatment,10386 West State Highway 52,,Samson,AL,36477,,334-898-7423,http://Spectracare.org,31.1083,-86.0237,1,,,1,,1,,1,,1,1,,1,,,,,,,,,,,,,,,,,,,,,,,
North Baldwin Infirmary,Senior Behavioral Health,1815 Hand Avenue,,Bay Minette,AL,36507,,251-580-1770,http://www.infirmaryhealth.org/services/mental-and-substance/senior-behavioral-health,30.9039384,-87.7850231,1,1,,,,1,,,,,,,,,,,,,,,,,,,,,,,,,,,,,,
AltaPointe Health Systems Inc,Community Counseling/Washington County,63 Dixie Youth Drive,,Chatom,AL,36518,,251-847-2301,http://www.altapointe.org/,31.4592229,-88.2286757,1,,1,,,1,,1,1,1,1,,1,,,,,,,,,,,,,,,,,,,,,,,
East Pointe Hospital,,7400 Roper Lane,,Daphne,AL,36526,,251-378-6500,http://www.altapointe.org,30.6354925,-87.897023,1,1,,,,,,,,,,,1,,,,,,,,,,,,,,,,,,,,,,,
Altapointe Health Systems Inc,Lott Transitional Age CRF,8065 Lott Road,,Wilmer,AL,36587,,251-645-3738,http://,30.858765,-88.280479,1,,,,,1,,1,,,,1,,,,,,,,,,,,,,,,,,,,,,,,
Gulf Coast VAMC,VA Outpatient Clinic,1504 Spring Hill Avenue,,Mobile,AL,36604,,251-219-3900 x3942,http://,30.6932066,-88.0718862,1,,1,,,1,,1,1,,1,,1,,,,,,,,,,,,,,,,,,,,,,,
AltaPointe Health Systems Inc,Zeigler Outpatient,7280 Sellers Lane,,Mobile,AL,36608,,251-776-1930,http://altapointe.org,30.703434,-88.212398,1,,,1,,,,1,,1,1,1,,,,,,,,,,,,,,,,,,,,,,,,
Gardenia CRF,,630 Zeigler Circle East,,Mobile,AL,36608,,251-639-2327,http://altapointe.org,30.703423,-88.212918,1,,,,,,,,,1,1,1,,,,,,,,,,,,,,,,,,,,,,,,
AltaPointe Health Systems Inc,BayPointe Hospital,5800 Southland Drive,,Mobile,AL,36693,,251-661-0153,http://altapointe.org,30.624796,-88.178619,1,1,,,,,,,,,1,,1,,,,,,,,,,,,,,,,,,,,,,,
Cahaba Center for Mental Health,Reynolds Building,1017 Medical Center Parkway,,Selma,AL,36701,6780,334-875-2100,http://www.cahabamentalhealth.com,32.4296,-87.0581,1,,1,,,1,,,,1,1,1,1,,,,,,,,,,,,,,,,,,,,,,,
Cahaba Center for Mental Health,Annex,417 Medical Center Parkway,,Selma,AL,36701,,334-875-6068,http://www.cahabamentalhealth.com,32.4247,-87.0505,1,,,,,1,,,,1,1,1,1,,,,,,,,,,,,,,,,,,,,,,,
Cahaba Center for Mental Health,Cahaba Place,2990 Earl Goodwin Parkway,,Selma,AL,36701,2860,334-418-6527,http://www.cahabamentalhealth.com,32.4381798,-87.0144969,1,,,,1,1,,,,1,1,1,1,,,,,,,,,,,,,,,,,,,,,,,
Cahaba Center for Mental Health,Wilcox County Satellite,45 Camden Bypass,,Camden,AL,36726,,334-682-4499,http://www.cahabamentalhealth.com,32.0026503,-87.2867115,1,,1,,,1,,,,1,1,1,1,,,,,,,,,,,,,,,,,,,,,,,
West Alabama Mental Health Center,Springhill Home,1304 Old Springhill Road,,Demopolis,AL,36732,,334-289-3270,http://www.wamhc.org,32.500333,-87.804207,1,,,,,1,,1,,1,,,1,,,,,,,,,,,,,,,,,,,,,,,
Bryan W Whitfield Memorial Hosp,Tombigbee Healthcare Authority,105 U.S. Highway 80 East,,Demopolis,AL,36732,,334-289-4000,http://www.bwwmh.com,32.5037931,-87.8374699,1,1,,,,,,,,1,,,1,,,,,,,,,,,,,,,,,,,,,,,
West Alabama Mental Health Center,,1401 U.S. Highway 80 East,,Demopolis,AL,36732,,334-217-0010,http://www.wamhc.org,32.503313,-87.823756,1,,,,,,,1,,1,,1,,,,,,,,,,,,,,,,,,,,,,,,
West Alabama Mental Health Center,,1215 South Walnut Avenue,,Demopolis,AL,36732,,334-289-2410,http://www.wamhc.org,32.503456,-87.838574,1,,,1,,1,,1,,1,,,1,,,,,,,,,,,,,,,,,,,,,,,
West Alabama Mental Health Center,Hale County Office,401 1st Street,,Greensboro,AL,36744,,334-624-4905,http://,32.6940636,-87.5878775,1,,,1,,,,1,,1,1,,,,,,,,,,,,,,,,,,,,,,,,,
Cahaba Center for Mental Health,Perry County Satellite,104 Edwards Street,,Marion,AL,36756,2304,334-683-9957,http://www.cahabamentalhealth.com,32.6352801,-87.3114105,1,,1,,,1,,,,1,1,1,1,,,,,,,,,,,,,,,,,,,,,,,
Grand View Behavioral Health,,2123 Executive Park Drive,,Opelika,AL,36801,,334-745-6125,http://www.mtnviewhospital.com,32.627348,-85.437913,1,,1,,,,,,,1,,,1,,,,,,,,,,,,,,,,,,,,,,,
East Alabama Medical Center,Department of Psychiatric Medicine,2000 Pepperell Parkway,,Opelika,AL,36801,,334-749-3411,http://www.eamc.org,32.638108,-85.404123,1,1,,,,,,1,1,,,,1,,,,,,,,,,,,,,,,,,,,,,,
Waverly Residential Care Home,East Alabama Mental Health,2401 Waverly Parkway,,Opelika,AL,36801,,334-742-2108,http://www.eamhc.org/,32.6489262,-85.4122076,1,,,,,,,1,,,,,,,,,,,,,,,,,,,,,,,,,,,,
West Alabama Mental Health Center,Choctaw County Office,401 Rogers Street,,Butler,AL,36904,2601,205-459-2612,http://www.wamhc.org,32.084995,-88.216348,1,,,1,,,,1,,1,,,1,,,,,,,,,,,,,,,,,,,,,,,
Princeton Baptist Medical Center,,701 Princeton Avenue SW,,Birmingham,AL,35211,,205-783-3650,http://www.brookwoodbaptisthealth.com,33.4985132,-86.8462189,1,1,,,,,,,,,1,1,1,,,,,,,,,,,,,,,,,,,,,,,
UAB Engel Day Treatment Ctr,,930 20th Street South ,,Birmingham,AL,35294,,205-975-4537,http://www.uab.edu/medicine/psychiatry/patients/engel-therapeutic-preschool-a-day-treat,33.5022975,-86.7979643,1,,,,,,1,,,,,1,,,,,,,,,,,,,,,,,,,,,,,,
Northwest Medical Center,,1530 U.S. Highway 43,,Winfield,AL,35594,5056,205-487-7000,http://,33.930952,-87.824744,1,1,,,,,,,,,,,,,,,,,,,,,,,,,,,,,,,,,,
Lawrence County,Adult CM,295 Hospital Street,,Moulton,AL,35650,,256-974-6697,http://,34.4843387,-87.2859818,1,,,1,,,,1,,1,,,,,,,,,,,,,,,,,,,,,,,,,,
Lawrence County,Adult Outpatient,295 Hospital Street,,Moulton,AL,35650,,256-974-6697,http://,34.4843387,-87.2859818,1,,,1,,,,1,1,1,,,,,,,,,,,,,,,,,,,,,,,,,,
Huntsville Hospital,,101 Sivley SW Road,,Huntsville,AL,35801,,256-265-8123,http://,34.721282,-86.581479,1,1,,,,,,1,,,,,,,,,,,,,,,,,,,,,,,,,,,,
WellStone Behavioral Health,,4040 Memorial Parkway SW,,Huntsville,AL,35802,,256-533-1970,http://www.wellstone.com,34.6802121,-86.5783003,1,,,1,,1,,1,,1,1,1,1,,,,,,,,,,,,,,,,,,,,,,,
Frantz Therapeutic Residential Home,,1038 McDuffie Street,,Gadsden,AL,35904,,256-543-2883,http://www.cedmentalhealth.org,34.021069,-86.015626,1,,,,,,,,,1,,1,,,,,,,,,,,,,,,,,,,,,,,,
Montgomery Area MH Authority,,2140 Upper Wetumpka Road,,Montgomery,AL,36107,,334-279-7830,http://www.mamha.org,32.389398,-86.275851,1,,,1,,,,1,,1,,,1,,,,,,,,,,,,,,,,,,,,,,,
SafetyNet Academy,SafetyNet Montgomery,5906 Carmichael Place,,Montgomery,AL,36117,2345,334-277-1334,http://www.safetynetbhc.com,32.361394,-86.201859,1,,,,,1,,,,,,,,,,,,,,,,,,,,,,,,,,,,,,
AltaPointe Health Systems,,2009 Medical Center Drive,,Bay Minette,AL,36507,,251-937-2010,http://www.altapointe.org,30.9031424,-87.7860429,1,,1,,,1,,,,1,1,,1,,,,,,,,,,,,,,,,,,,,,,,
AltaPointe Health Systems Inc,,372 Greeno Road South,,Fairhope,AL,36532,,251-928-2871,http://altapointe.org,30.51394,-87.886149,1,,,1,,1,,1,,1,1,,1,,,,,,,,,,,,,,,,,,,,,,,
Harbor at Thomas Hospital,,750 Morphy Avenue,,Fairhope,AL,36532,,251-279-1119,http://www.infirmaryhealth.org,30.519974,-87.888169,1,,,,,1,,,,,,,,,,,,,,,,,,,,,,,,,,,,,,
South Central Alabama CMHC,Crenshaw County Mental Health Clinic,587 Bentley Avenue,,Luverne,AL,36049,,334-335-5201,http://www.scamhc.org,31.706138,-86.260394,1,,,1,,1,,1,,1,1,,1,,,,,,,,,,,,,,,,,,,,,,,
Beacon Childrens Hospital,,150 Hospital Drive,,Luverne,AL,36049,,334-335-5040,http://www.beaconchildrenshospital.com/,31.716546,-86.263849,1,1,,,,1,,,1,,1,1,1,,,,,,,,,,,,,,,,,,,,,,,
Montgomery Area MH Authority,Lowndes County Satellite Office,5 Academy Lane,,Hayneville,AL,36040,,334-279-7830 x7501,http://www.mamha.org,32.184075,-86.578237,1,,,1,,,,1,,1,,,1,,,,,,,,,,,,,,,,,,,,,,,
South Central Alabama CMHC,Butler County MH Center,185 Industrial Parkway,,Greenville,AL,36037,,334-382-2018,http://www.scamhc.org,31.8253051,-86.6403597,1,,,1,,,,1,,1,1,,1,,,,,,,,,,,,,,,,,,,,,,,
Medical Center Barbour,,820 West Washington Street,,Eufaula,AL,36027,,334-688-7000,http://www.medctrbarbour.org,31.8887,-85.1562,1,1,,,,,,,,1,1,1,1,,,,,,,,,,,,,,,,,,,,,,,
SpectraCare,Barbour County Clinic,133 North Orange Avenue,,Eufaula,AL,36027,1619,334-687-2323,http://www.spectracare.org,31.8942151,-85.1417459,1,,1,,,1,,1,1,1,,1,1,,,,,,,,,,,,,,,,,,,,,,,
Marshall Medical Center North,Behavioral Health Unit,8000 Al Highway 69,,Guntersville,AL,35976,,256-571-8722,http://,34.36475573,-86.42154693,1,1,,,,,,,,1,1,1,1,,,,,,,,,,,,,,,,,,,,,,,
Mountain Lakes Behavioral Healthcare,,2409 Homer Clayton Drive,,Guntersville,AL,35976,,256-582-3203,http://www.mlbhc.com,34.33754,-86.311868,1,,,1,,1,,1,,1,,,,,,,,,,,,,,,,,,,,,,,,,,
DeKalb Regional Medical Center,,200 Medical Center Drive SW,,Fort Payne,AL,35968,,256-845-3150 x2725,http://dekalbregional.com,34.438606,-85.7556718,1,1,,,,1,,,,,1,,1,,,,,,,,,,,,,,,,,,,,,,,
Cherokee Etowah Dekalb CMHC,Dekalb County Office,301 14th Street NW,,Fort Payne,AL,35967,3155,256-845-4571,http://www.cedmentalhealth.org,34.455559,-85.714084,1,,,1,,,,,,1,,,1,,,,,,,,,,,,,,,,,,,,,,,
Cherokee Etowah Dekalb CMHC,Cherokee County Office,200 Dean Buttram Avenue,,Centre,AL,35960,1026,256-927-3601,http://www.cedmentalhealth.org,34.167504,-85.661145,1,,,1,,,,,,1,,,1,,,,,,,,,,,,,,,,,,,,,,,
Cherokee Etowah Dekalb CMHC,White/Parker Home Specialized,901 Edith Street,,Centre,AL,35960,,256-927-2687,http://www.cedmentalhealth.org,34.168598,-85.662335,1,,,,,,,,,1,,1,,,,,,,,,,,,,,,,,,,,,,,,
Cherokee Etowah Dekalb CMHC,,425 5th Avenue NW,,Attalla,AL,35954,,256-492-7800,http://cedmentalhealth.org,34.0239045,-86.089599,1,,,1,,,,,,1,,,1,,,,,,,,,,,,,,,,,,,,,,,
Mountain View Hospital,,3001 Scenic Highway,,Gadsden,AL,35904,,256-546-9265 x2123,http://www.mtnviewhospital.com,34.1031432,-85.9871561,1,1,,,,,,,,1,,1,1,,,,,,,,,,,,,,,,,,,,,,,
Riverview Regional Medical Center,Senior Heights,600 South 3rd Street,,Gadsden,AL,35901,,256-543-5700,http://,34.004265,-86.003393,1,1,,,,,,,,,,,,,,,,,,,,,,,,,,,,,,,,,,
Behavioral Healthcare Center at,Huntsville,5315 Millennium Drive NW,,Huntsville,AL,35806,,256-964-6700,http://thmgt.com/locations/behavioral-healthcare-center-at-huntsville,34.753314,-86.661276,1,1,,,,1,,,,,1,,1,,,,,,,,,,,,,,,,,,,,,,,
Crisis Residential Center,,3911 Triana Boulevard SW,Suite A,Huntsville,AL,35805,,256-217-9958 x35,http://,34.695836,-86.607613,1,,,,,,,1,,1,,,1,,,,,,,,,,,,,,,,,,,,,,,
Crestwood Medical Center,Behavioral Health Services,1 Hospital Drive SW,,Huntsville,AL,35801,,256-429-5480,http://www.crestwoodmedcenter.com,34.692792,-86.571787,1,1,,,,,,,,1,1,,1,,,,,,,,,,,,,,,,,,,,,,,
Birmingham VAMC,Huntsville Clinic,301 Governors Drive SW,,Huntsville,AL,35801,,256-535-3100,http://,34.719268,-86.58317,1,,,,,1,,,,1,1,,1,,,,,,,,,,,,,,,,,,,,,,,
Mountain Lakes Behavioral Healthcare,Jackson County Office,508 Gregory Street,,Scottsboro,AL,35768,4239,256-259-1774,http://mlbhc-web.com,34.6615995,-86.0489739,1,,,1,,1,,,,1,,1,1,,,,,,,,,,,,,,,,,,,,,,,
Mountain Lakes Behavioral Healthcare,Sue Bolt Foster Home,4884 Alabama Highway 40,,Dutton,AL,35744,,256-228-6514,http://www.mlbhc.com,34.6341669,-85.9272534,1,,,,,,,1,,,,,,,,,,,,,,,,,,,,,,,,,,,,
Mountain Lakes Residential Care Home,,4886 Alabama Highway 40,,Dutton,AL,35744,,256-228-3361,http://www.mlbhc.com,34.6341669,-85.9272534,1,,,,,,,1,,,1,1,,,,,,,,,,,,,,,,,,,,,,,,
Shoals Senior Care,,201 Avalon Avenue,,Muscle Shoals,AL,35661,2805,256-386-1667,http://www.shoalshospital.com,34.744969,-87.675383,1,1,,,,,,,1,,,,1,,,,,,,,,,,,,,,,,,,,,,,
Riverbend Center for Mental Health,,205 Jackson Avenue South,,Russellville,AL,35653,2233,256-332-3971,http://www.rcmh.org,34.502856,-87.731426,1,,,1,,,,1,,,1,,,,,,,,,,,,,,,,,,,,,,,,,
Lawrence County,Child and Adol CM/Hourly Services,295 Hospital Street,,Moulton,AL,35650,,256-974-6697,http://,34.4843387,-87.2859818,1,,,1,,,,1,,1,,,,,,,,,,,,,,,,,,,,,,,,,,
MHCNCA Inc,Moulton Lawrence Counseling Center,317 Hospital Street,,Moulton,AL,35650,,256-974-6697,http://,34.484622,-87.28598,1,,,1,,,,1,,1,,,,,,,,,,,,,,,,,,,,,,,,,,
Eliza Coffee Memorial Hospital,Behavioral Health Center,205 Marengo Street,,Florence,AL,35630,,256-768-9128,http://www.chgroup.org/ecm,34.795108,-87.685092,1,1,,,,1,,,,,,,1,,,,,,,,,,,,,,,,,,,,,,,
Riverbend Center for Mental Health,,635 West College Street,,Florence,AL,35630,,256-764-3431,http://www.rcmh.org,34.795797,-87.683506,1,,,1,,,,1,,1,1,1,1,,,,,,,,,,,,,,,,,,,,,,,
MHCNCA Inc,Athens Limestone Counseling Center,1307 East Elm Street,,Athens,AL,35611,,256-232-3661,http://MHCNCA.ORG,34.818808,-86.949612,1,,,1,,,,,,1,,,,,,,,,,,,,,,,,,,,,,,,,,
MHCNCA Inc,Decatur/Morgan Counseling Center,4110 U.S. Highway 31 South,,Decatur,AL,35603,,256-260-1691,http://WWW.MHCNCA.ORG,34.530245,-86.975856,1,,,1,,,,1,,1,1,1,,,,,,,,,,,,,,,,,,,,,,,,
Mental Health Center of NCA Inc,The Albany Clinic for Children,1315 13th Avenue SE,,Decatur,AL,35601,4308,256-350-1935,http://www.mhcnca.org,34.585869,-86.971518,1,,1,,,,,,,,,,,,,,,,,,,,,,,,,,,,,,,,,
Northwest Alabama MHC,Winston County Office,71 Carraway Drive,,Haleyville,AL,35565,,205-486-4111,http://www.northwestalabamamentalhealthcenter.com,34.226488,-87.621413,1,,,,1,1,1,1,,1,,,1,,,,,,,,,,,,,,,,,,,,,,,
Northport Medical Center,North Harbor Psych Pavillion,2700 Hospital Drive,,Northport,AL,35476,3360,205-330-3102,http://www.dchsystem.com,33.23361,-87.571248,1,1,,,,1,,1,,,,,,,,,,,,,,,,,,,,,,,,,,,,
West Alabama Mental Health Center,Sumter County Office,1121 North Washington Street,,Livingston,AL,35470,,205-652-6731,http://www.wamhc.org,32.597316,-88.182974,1,,,1,,,,1,,1,,,,,,,,,,,,,,,,,,,,,,,,,,
West Alabama Mental Health Center,Greene County Office,301 Prairie Avenue,,Eutaw,AL,35462,,205-372-3106,http://www.wamhc.org,32.840207,-87.887911,1,,,1,,,,1,,1,1,1,1,,,,,,,,,,,,,,,,,,,,,,,
Pickens County Medical Center,,241 Robert K Wilson Drive,,Carrollton,AL,35447,,205-367-2465,http://pickenscountymedicalcenter.com,33.2759854,-88.0910893,1,1,,,,,,,1,,,,1,,,,,,,,,,,,,,,,,,,,,,,
Pickens County Satellite,Indian Rivers Mental Health Center,140 Courthouse Square East,,Carrollton,AL,35447,,205-367-8159,http://irmhc.org,33.261787,-88.095026,1,,,1,,,,1,,1,1,,,,,,,,,,,,,,,,,,,,,,,,,
Brewer/Porch Childrens Center,University of Alabama,2501 Woodland Road,,Tuscaloosa,AL,35404,,205-348-7236,http://www.bpcc.ua.edu,33.185898,-87.490798,1,,,,,1,,,,,,1,,,,,,,,,,,,,,,,,,,,,,,,
Bryce Hospital,,1651 Ruby Tyler Parkway,,Tuscaloosa,AL,35404,,205-507-8000,http://,33.209161,-87.521712,1,1,,,,,1,,,,,1,1,,,,,,,,,,,,,,,,,,,,,,,
Indian Rivers Mental Health Center,,2209 9th Street,,Tuscaloosa,AL,35401,,205-391-3131 x1043,http://www.irmhc.org,33.2061142,-87.5644367,1,,,1,,,,1,,1,1,,,,,,,,,,,,,,,,,,,,,,,,,
Mary Starke Harper,Geriatric Psychiatry Center,107 5th Avenue East,,Tuscaloosa,AL,35401,,205-366-3010 x3013,http://,33.1818563,-87.5295783,1,1,,,,,,,,,,,1,,,,,,,,,,,,,,,,,,,,,,,
UAB Community Psychiatry Program,,908 20th Street South,"CCB, 4th Floor",Birmingham,AL,35294,2050,205-934-4108,http://www.uab.edu/medicine/psychiatry/our-divisions/community-psychiatry,33.5032275,-86.7983878,1,,,1,,1,,,,1,1,1,,,,,,,,,,,,,,,,,,,,,,,,
UAB Department of Psychiatry,Center for Psychiatric Med,1713 6th Avenue South,,Birmingham,AL,35294,,205-934-6054,http://www.uab.edu/medicine/psychiatry/,33.50485,-86.8040002,1,,1,,,,,,,,,,,,,,,,,,,,,,,,,,,,,,,,,
UAB Hospital,Center for Psychiatric Medicine,619 19th Street South,,Birmingham,AL,35249,,205-975-2710,http://www.uab.edu/medicine/psychiatry,33.506159,-86.80188,1,1,,,,1,,1,,,1,1,1,,,,,,,,,,,,,,,,,,,,,,,
Grandview Medical Center,Behavioral Health,3690 Grandview Parkway,,Birmingham,AL,35243,,205-971-6100,http://grandviewhealth.com,33.4326147,-86.7185683,1,1,,,,,,1,,,1,1,,,,,,,,,,,,,,,,,,,,,,,,
Glenwood Inc,Main Campus,150 Glenwood Lane,,Birmingham,AL,35242,,205-969-2880,http://www.glenwood.org,33.481137,-86.663538,1,,,,1,,,,,,,1,,,,,,,,,,,,,,,,,,,,,,,,
Eastside CMHC,,129 East Park Circle,,Birmingham,AL,35235,3000,205-836-7283,http://www.eastsidemhc.org,33.585674,-86.670241,1,,,1,,,,,,1,1,1,,,,,,,,,,,,,,,,,,,,,,,,
Birmingham VAMC,Mental Hygiene (116A),700 19th Street South,,Birmingham,AL,35233,,205-933-8101,http://www.birmingham.va.gov/,33.5043252,-86.80166,1,,,,,1,,1,1,1,1,,1,,,,,,,,,,,,,,,,,,,,,,,
JBS Mental Health Authority,Day Treatment Program,3600 4th Avenue South,,Birmingham,AL,35222,2418,205-322-7335,http://,33.519815,-86.779787,1,,,,,,,1,,1,,1,,,,,,,,,,,,,,,,,,,,,,,,
Western Mental Health Center Inc,,1701 Avenue D,Ensley,Birmingham,AL,35218,,205-788-7770 x246,http://www.wmhcinc.com/,33.5150975,-86.8964296,1,,1,,,,,1,,1,,,1,,,,,,,,,,,,,,,,,,,,,,,
Rehabilitation Day Program,Jasper House,2112 Avenue H,Suite B,Birmingham,AL,35218,,205-324-9822 x9021,http://www.aidsalabama.org/,33.5093403,-86.8958311,1,,,,,,,,,,,1,1,,,,,,,,,,,,,,,,,,,,,,,
JBS Mental Health Authority,,940 Montclair Road,Suite 200,Birmingham,AL,35213,,205-595-4555,http://jbsmha.com,33.518695,-86.743365,1,,1,,,,,1,,,,,,,,,,,,,,,,,,,,,,,,,,,,
Capitol Care South,Adult Outpatient Services,2619 Commerce Boulevard,,Birmingham,AL,35210,,205-956-2000,http://www.capitolcaresouth.com/,33.54469,-86.692931,1,,,1,,1,,1,,1,1,1,,,,,,,,,,,,,,,,,,,,,,,,
Eastlake Group Homes,,7744 1st Avenue South,,Birmingham,AL,35206,,205-836-6538,http://,33.5616385,-86.7259903,1,,,,,,,,,,,,,,,,,,,,,,,,,,,,,,,,,,,
Gateway,,1401 20th Street South,,Birmingham,AL,35205,,205-510-2600,http://www.gway.org,33.497694,-86.794092,1,,1,,,1,,,,,,,1,,,,,,,,,,,,,,,,,,,,,,,
Gateway,,5201 Airport Highway,,Birmingham,AL,35201,,205-510-2600,http://www.gway.org,33.544054,-86.759426,1,,,,,1,,,,,,,1,,,,,,,,,,,,,,,,,,,,,,,
Coosa Valley Senior Behavioral,,315 West Hickory Street,,Sylacauga,AL,35150,,256-401-4670,http://,33.165474,-86.253802,1,1,,,,,,,,,,,1,,,,,,,,,,,,,,,,,,,,,,,
Hillwood Home,,210 North Elm Avenue,,Sylacauga,AL,35150,1975,256-245-6984,http://www.crmhc.org/,33.170585,-86.257886,1,,,,,,,1,,,1,,,,,,,,,,,,,,,,,,,,,,,,,
Altapointe Health Systems Inc,Sylacauga Outpatient Office,1661 Old Birmingham Highway,,Sylacauga,AL,35150,,256-245-2201,http://www.altapointe.org,33.1740349,-86.2745721,1,,,1,,,,,,1,,1,,,,,,,,,,,,,,,,,,,,,,,,
Saint Clair County CMHC,,625 15th Street North,,Pell City,AL,35125,1381,205-338-7525,http://www.eastsidemhc.org,33.595234,-86.28765,1,,,1,,,,,,1,1,,,,,,,,,,,,,,,,,,,,,,,,,
Family/Youth Intervention Junior,Family and Youth Intervention Programs,2280 Highway 35,,Pelham,AL,35124,,205-682-6186,http://,33.307433,-86.782101,1,,,,,1,,,,,1,,,,,,,,,,,,,,,,,,,,,,,,,
Chilton Shelby MHC,,2100 County Services Drive,,Pelham,AL,35124,,205-663-1252,http://chiltonshelby.org,33.28208,-86.794598,1,,,1,,,,,,1,1,,,,,,,,,,,,,,,,,,,,,,,,,
Blount County CMHC,,1002 2nd Avenue East,Suite A,Oneonta,AL,35121,2508,205-625-3882,http://www.eastsidemhc.org,33.957151,-86.464307,1,,,1,,,,,,1,1,,,,,,,,,,,,,,,,,,,,,,,,,
Mental Healthcare of Cullman,,1909 Commerce Avenue,,Cullman,AL,35055,,256-734-4688,http://mentalhealthcareofcullman.org,34.206588,-86.875835,1,,,1,,1,,1,,1,,1,1,,,,,,,,,,,,,,,,,,,,,,,
Magnolia Creek Treatment Center for,Eating Disorders,645 Crenshaw Road,,Columbiana,AL,35051,,205-678-4373,http://www.magnolia-creek.com/,33.2836227,-86.6065454,1,,,,,1,,1,1,,,,1,,,,,,,,,,,,,,,,,,,,,,,
Clanton MI Outpatient,,110 Medical Center Drive,,Clanton,AL,35045,,205-755-5933,http://www.chiltonshelby.org,32.854885,-86.62293,1,,,1,,1,,,,1,1,1,,,,,,,,,,,,,,,,,,,,,,,,
Hamilton Center,,151 Hamilton Lane,,Calera,AL,35040,,205-668-4308,http://www.chiltonshelby.org,33.102897,-86.753598,1,,,1,,1,,,,1,1,,,,,,,,,,,,,,,,,,,,,,,,,
UAB Medical West,,995 9th Avenue SW,,Bessemer,AL,35022,,205-481-7000,http://www.medicalwesthospital.org,33.373148,-86.991665,1,1,,,,,,,,,,,1,,,,,,,,,,,,,,,,,,,,,,,
Ozark Guidance Center Inc,,710 South Holly Street,,Siloam Springs,AR,72761,,479-524-8618,http://,36.178932,-94.55909,1,,,1,,1,,1,1,1,,1,1,,,,,,,,,,,,,,,,,,,,,,,
Northwest Medical Center/Springdale,,609 West Maple Avenue,,Springdale,AR,72764,5394,479-757-1400,http://www.northwesthealth.com,36.1800714,-94.1367276,1,1,,,,,,,1,,,,,,,,,,,,,,,,,,,,,,,,,,,
Saint Marys Regional Medical Center,Turning Point,1808 West Main Street,,Russellville,AR,72801,,479-967-0701,http://www.saintmarysregional.com,35.28319,-93.149218,1,1,,,,,,1,,,,,1,,,,,,,,,,,,,,,,,,,,,,,
Preferred Family Healthcare,Russellville Clinic,1610 South Arkansas Avenue ,Suite 1,Russellville,AR,72801,,479-967-4673,http://www.aoinc.org,35.263521,-93.135423,1,,1,,,1,,,,1,,1,1,,,,,,,,,,,,,,,,,,,,,,,
Counseling Associates Inc,Russellville Clinic,110 Skyline Drive,,Russellville,AR,72801,,479-968-1298,http://www.caiinc.org/,35.288009,-93.165445,1,,,1,,1,,,,1,,,1,,,,,,,,,,,,,,,,,,,,,,,
Birch Tree Communities Inc,Russellville,210 North Shamrock Boulevard ,,Russellville,AR,72801,,501-315-3344,http://www.birchtree.org,35.278433,-93.091027,1,,,,1,1,,1,,1,1,1,1,,,,,,,,,,,,,,,,,,,,,,,
Conway County Community Service Inc,,1505 South Oswego Avenue,,Russellville,AR,72802,,479-967-3370,http://www.csiyouth.com,35.264234,-93.11746,1,,1,,,1,,,,1,,,1,,,,,,,,,,,,,,,,,,,,,,,
Perspectives Behavioral Hlth Mgmt LLC,,311 South Central Street,,Clarksville,AR,72830,,479-754-0277,http://www.pbhm.com,35.4692221,-93.465096,1,,,,,1,,1,1,1,,,1,,,,,,,,,,,,,,,,,,,,,,,
Birch Tree Communities Inc,Clarksville,522 Mill Road,,Clarksville,AR,72830,,501-315-3344,http://Birchtree.org,35.477537,-93.4510092,1,,1,,,1,,1,,1,1,1,,,,,,,,,,,,,,,,,,,,,,,,
Conway County Community Service Inc,,106 Cherokee Lane,,Clarksville,AR,72830,,479-754-7296,http://www.csiyouth.com,35.473209,-93.497552,1,,1,,,1,,,,1,,1,,,,,,,,,,,,,,,,,,,,,,,,
Johnson Regional Medical Center,,1100 East Poplar Street,,Clarksville,AR,72830,,479-754-5490,http://www.jrmc.com,35.4643692,-93.4449512,1,1,,,,1,,,,1,1,,1,,,,,,,,,,,,,,,,,,,,,,,
Phases Behavioral Health Unit at,The River Valley Medical Center,200 North 3rd Street,,Dardanelle,AR,72834,,479-229-6105,http://www.rvmc.com,35.2202416,-93.1565367,1,1,,,,,,,,,,1,1,,,,,,,,,,,,,,,,,,,,,,,
PFH DBA Dayspring of Arkansas,Lamar Clinic,1000 East Main Street,,Lamar,AR,72846,,479-733-0400,http://www.aoinc.org,35.4261544,-93.3849905,1,,1,,,1,,,,1,,,,,,,,,,,,,,,,,,,,,,,,,,
Western Arkansas Counseling and,Guidance Center/Logan County Clinic,415 South 6th Street,,Paris,AR,72855,,479-452-6650,http://www.wacgc.org,35.288802,-93.724401,1,,,1,,1,,1,,1,1,1,1,,,,,,,,,,,,,,,,,,,,,,,
Sparks Regional Medical Center,,1001 Towson Avenue,,Fort Smith,AR,72901,,479-441-4000 x4718,http://www.sparkshealth.com,35.3745312,-94.4194135,1,1,,,,,,,,,,1,,,,,,,,,,,,,,,,,,,,,,,,
Perspectives Behavioral Hlth Mgmt LLC,,1340 South Waldron Road,,Fort Smith,AR,72903,,479-783-5353,http://www.pbhm.com,35.3693505,-94.3727857,1,,1,,,1,,,1,1,,,,,,,,,,,,,,,,,,,,,,,,,,
Western Arkansas Counseling and,Guidance Center/New Center,3109 South 70th Street,,Fort Smith,AR,72903,,479-452-9490,http://,35.3526911,-94.3556622,1,,1,,,,,1,,,1,1,,,,,,,,,,,,,,,,,,,,,,,,
Western Arkansas Counseling and ,Guidance Center/Horizon,3113 South 70th Street,,Fort Smith,AR,72903,,479-478-6664,http://wacgc.org,35.3526796,-94.3556666,1,,,,,1,,,,1,,1,,,,,,,,,,,,,,,,,,,,,,,,
PFH/Health Resources of Arkansas Inc,Marshall Clinic,316 Highway 65 North,Suite B,Marshall,AR,72650,,866-308-9928,http://www.pfh.org,35.9200318,-92.4212875,1,,,1,,1,,,,,,,1,,,,,,,,,,,,,,,,,,,,,,,
Life Strategies Counseling Inc,,809 West Main Street,Suite C,Trumann,AR,72472,,870-483-0068,http://www.lscihelp.com,35.671299,-90.518077,1,,1,,,1,,1,,1,,,,,,,,,,,,,,,,,,,,,,,,,,
Dayspring of Arkansas,,339 Highway 463 North,,Trumann,AR,72472,3505,870-483-7039,http://aoinc.org,35.667969,-90.513401,1,,1,,,1,,1,,1,,1,1,,,,,,,,,,,,,,,,,,,,,,,
Ascent Childrens Health Services,,1005 Balcom Lane,,Trumann,AR,72472,,870-483-1461,http://www.ascentchs.com,35.68811,-90.535744,1,,,,,1,,,,,,,,,,,,,,,,,,,,,,,,,,,,,,
Southeast AR Behavioral Healthcare,Socialization and Rehabilitation,3004 West 34th Avenue,,Pine Bluff,AR,71603,,870-534-1834 x2135,http://www.sabhs.org,34.194578,-92.03359,1,,,,,,,,,1,1,1,,,,,,,,,,,,,,,,,,,,,,,,
Southeast AR Behavioral Healthcare,,2500 Rike Drive,,Pine Bluff,AR,71603,,870-534-1834 x2135,http://www.sabhs.org,34.209029,-92.028933,1,,,1,,1,,,,1,1,1,1,,,,,,,,,,,,,,,,,,,,,,,
Jefferson Regional Medical Center,,1600 West 40th Avenue,,Pine Bluff,AR,71603,,870-541-7100 x7131,http://,34.189055,-92.018179,1,1,,,,,,1,,,,,1,,,,,,,,,,,,,,,,,,,,,,,
Delta Counseling Associates Inc,Ashley County Clinic,1308 West 5th Avenue,,Crossett,AR,71635,2500,870-364-6471,http://,33.129408,-91.982942,1,,,1,,1,,1,,1,1,1,1,,,,,,,,,,,,,,,,,,,,,,,
Ashley County Medical Center,Generations,1015 Unity Road,,Crossett,AR,71635,,870-364-4111,http://www.acmc@acmconline.org,33.138337,-91.938981,1,1,,,,,,,,,,,,,,,,,,,,,,,,,,,,,,,,,,
Delta Counseling Associates Inc,,741 Highway 65 South,,Dumas,AR,71639,3003,870-382-4001,http://,33.897088,-91.488403,1,,,1,,1,,1,,1,1,1,1,,,,,,,,,,,,,,,,,,,,,,,
Delta Family Health Fitness Ctr for,Children Inc,815 East Saint Louis Street,,Hamburg,AR,71646,,870-853-4224,http://www.deltafamilycenter.com,33.2281757,-91.7976285,1,,,,,1,,,,,,1,1,,,,,,,,,,,,,,,,,,,,,,,
Delta Counseling Associates Inc,Chicot County Clinic,1127 Second Street,,Lake Village,AR,71653,,870-265-3808,http://,33.3221303,-91.2867488,1,,,1,,1,,1,,1,1,1,1,,,,,,,,,,,,,,,,,,,,,,,
Centers for Youth and Families,,936 Jordan Drive,,Monticello,AR,71655,,870-460-0066,http://centersforyouthandfamilies.org/,33.60942,-91.807204,1,,,,,1,,,1,,,,,,,,,,,,,,,,,,,,,,,,,,,
Preferred Family Health,DBA Dayspring Behavioral Health,571 West Gaines Street,,Monticello,AR,71655,,870-367-2141,http://aoinc.org,33.6293788,-91.7986576,1,,1,,,1,,1,,1,,1,1,,,,,,,,,,,,,,,,,,,,,,,
Delta Counseling Associates Inc,Drew County Clinic,790 Roberts Drive,,Monticello,AR,71655,,870-367-2461,http://,33.6098549,-91.8159189,1,,,1,,1,,1,1,1,1,1,1,,,,,,,,,,,,,,,,,,,,,,,
Delta Counseling Associates Inc,Bradley County Clinic,1404 East Church Street,,Warren,AR,71671,,870-226-5856,http://,33.6089413,-92.0396633,1,,,1,,1,,1,,1,1,1,1,,,,,,,,,,,,,,,,,,,,,,,
Bradley County Medical Center SR Care,,404 South Bradley Street,,Warren,AR,71671,,870-226-3731,http://www.bradleycountymedicalcenter.com,33.611087,-92.05867,1,1,,,,,,,,,,,,,,,,,,,,,,,,,,,,,,,,,,
South Arkansas Regional Health Center,Hope House,750 North Flenniken Avenue,,El Dorado,AR,71730,,870-864-2465 x4231,http://www.southarkansasregionalhealthcenter.org,33.2192089,-92.6727642,1,,,,1,,,1,1,1,,1,,,,,,,,,,,,,,,,,,,,,,,,
Preferred Family Healthcare Inc,,412 North Washington Avenue,,El Dorado,AR,71730,,870-863-4611,http://www.dayspringbhs.com,33.2145201,-92.6637783,1,,1,,,1,,1,,1,,1,1,,,,,,,,,,,,,,,,,,,,,,,
Millcreek Behavioral Health,,1828 Industrial Drive Highway 79 South,,Fordyce,AR,71742,,870-352-8203,http://www.millcreekbehavioralhealth.com/,33.8325876,-92.3902881,1,1,,,,1,,,,,,,,,,,,,,,,,,,,,,,,,,,,,,
Pointe Outpatient,Fordyce,300 North Clifton Street,,Fordyce,AR,71742,,870-352-5122,http://www.thepointebhs.com,33.8107944,-92.4250589,1,,1,,,1,,,,,,,1,,,,,,,,,,,,,,,,,,,,,,,
Southwest Arkansas Counseling and,Mental Health Center,300 East 20th Street,,Hope,AR,71801,,870-777-9051,http://www.swacmhc.com,33.6490761,-93.5850702,1,,,1,,,,,,,,,,,,,,,,,,,,,,,,,,,,,,,,
Riverview Behavioral Health,,225 South Main Street,,Hope,AR,71801,,870-777-4989,http://riverviewbehavioralhealth.com,33.6672012,-93.5916373,1,,1,,,1,,,,1,,1,1,,,,,,,,,,,,,,,,,,,,,,,
Wadley Regional Medical Center,Behavioral Health,2001 South Main Street,,Hope,AR,71801,,870-722-3800 x3840,http://,33.6490502,-93.5870364,1,1,,,,,,,1,,,1,1,,,,,,,,,,,,,,,,,,,,,,,
Therapeutic Family Services Inc,,1420 South Main Street,,Hope,AR,71801,,870-777-4848,http://,33.6561143,-93.5878975,1,,1,,,,,,,1,,,,,,,,,,,,,,,,,,,,,,,,,,
Southwest Arkansas Counseling and,Mental Health Center Inc,707 East Greenwood Street,,Hope,AR,71801,,870-777-9800,http://www.swacmhc.com,33.676586,-93.586475,1,,,1,,,,1,,1,1,1,,,,,,,,,,,,,,,,,,,,,,,,
Southwest Arkansas Counseling and,Mental Health Center,1312 West Collin Raye Drive,,De Queen,AR,71832,,870-584-7115,http://www.swacmhc.com,34.045405,-94.373601,1,,,1,,,,,,,,1,,,,,,,,,,,,,,,,,,,,,,,,
Southwest Arkansas Counseling and,Mental Health Center/Lewisville Clinic,1117 Chestnut Street,,Lewisville,AR,71845,,870-921-5485,http://www.swacmhc.com,33.365643,-93.57846,1,,,1,,,,,,,,,,,,,,,,,,,,,,,,,,,,,,,,
Therapeutic Family Services Inc,,626 Chestnut Street,,Lewisville,AR,71845,,870-921-3800,http://,33.361104,-93.578587,1,,1,,,,,,,1,,,,,,,,,,,,,,,,,,,,,,,,,,
Southwest Arkansas Counseling and,Mental Health Center,201 East Hempstead Street,Suite 1,Nashville,AR,71852,,870-845-3110,http://www.swacmhc.com,33.9422228,-93.84588,1,,,1,,1,,,,,1,1,,,,,,,,,,,,,,,,,,,,,,,,
Southwest Arkansas Counseling and,Mental Health Center,2904 Arkansas Boulevard,,Texarkana,AR,71854,,870-773-4655,http://www.swacmhc.com,33.460735,-94.011753,1,,,1,,1,,1,,,1,1,,,,,,,,,,,,,,,,,,,,,,,,
Preferred Family Health,DBA Dayspring Behavioral Health,4323 Jefferson Avenue,,Texarkana,AR,71854,,870-773-0700,http://aoinc.org,33.4650835,-94.0290755,1,,1,,,,,1,,1,,1,1,,,,,,,,,,,,,,,,,,,,,,,
Southwest Arkansas Counseling and,Mental Health Center Inc,1658 U.S. Highway 371,,Prescott,AR,71857,,870-887-3660,http://www.swacmhc.com,33.810457,-93.42366,1,,,1,,,,1,,1,1,1,,,,,,,,,,,,,,,,,,,,,,,,
Small Group Therapy Division of,Counseling Clinic Inc,311 Whittington Avenue,,Hot Springs National Park,AR,71901,,501-623-3477,http://www.smallgrouptherapy.com,34.5161507,-93.0597011,1,,,,1,,,,,1,1,1,,,,,,,,,,,,,,,,,,,,,,,,
Dayspring of Arkansas,,1820 Central Avenue ,Suite D,Hot Springs National Park,AR,71901,6898,501-609-0400,http://pfh.org,34.494439,-93.057808,1,,1,,,,,1,,1,,,1,,,,,,,,,,,,,,,,,,,,,,,
Therapeutic Family Services Inc,,600 Main Street,,Hot Springs National Park,AR,71913,,501-321-8200,http://,34.4882909,-93.0760703,1,,1,,,1,,,,1,,,,,,,,,,,,,,,,,,,,,,,,,,
Living Hope Hot Springs,,3604 Central Avenue,Suite C,Hot Springs National Park,AR,71913,8458,501-623-9220,http://www.lhsoutheast.com,34.46851,-93.060665,1,,1,,,1,,,,1,,1,1,,,,,,,,,,,,,,,,,,,,,,,
Pointe Outreach,Greater Hot Springs,1249 Lakeside Road,,Hot Springs National Park,AR,71913,,501-262-2766,http://www.thepointebhs.com,34.4729762,-92.994182,1,,1,,,1,,,,,,,1,,,,,,,,,,,,,,,,,,,,,,,
Ouachita Behavioral Health and Wellnes,,125 Dons Way,,Hot Springs National Park,AR,71913,,501-624-7111,http://www.hsccs.org,34.46397528,-93.07872534,1,,,1,,,,1,,1,1,1,1,,,,,,,,,,,,,,,,,,,,,,,
Ouachita Behavioral Health/ Wellness,Arkadelphia,201 North 26th Street,,Arkadelphia,AR,71923,,870-246-4123,http://www.hsccs.org,34.1230792,-93.0804386,1,,,1,,,,1,,1,1,1,1,,,,,,,,,,,,,,,,,,,,,,,
Ascent Childrens Health Services,,2410 Pine Street,,Arkadelphia,AR,71923,4335,870-245-2210,http://www.ascentchs.com,34.123408,-93.079443,1,,,,,1,,,,,,,1,,,,,,,,,,,,,,,,,,,,,,,
Mena Regional Health System,Senior Behavioral Health,311 Morrow Street North,,Mena,AR,71953,,479-394-7400,http://www.menaregional.com,34.589056,-94.221662,1,1,,,,1,,,,,,,,,,,,,,,,,,,,,,,,,,,,,,
Western Arkansas Counseling and,Guidance Center/Polk County Clinic,307 South Cherry Street,,Mena,AR,71953,,479-394-5277,http://www.wacgc.org,34.5841272,-94.2270589,1,,,1,,1,,1,,1,,,,,,,,,,,,,,,,,,,,,,,,,,
AO/Health Resources of Arkansas Inc,Augusta Behavioral Health Clinic,623 North 9th Street,,Augusta,AR,72006,,870-347-3254,http://www.aoinc.org,35.288001,-91.357889,1,,,1,,1,,1,,1,,,1,,,,,,,,,,,,,,,,,,,,,,,
Birch Tree Communities Inc,,1506 Mary Kay Boulevard,,Benton,AR,72015,,501-303-3150,http://birchtree.org,34.5497653,-92.6038937,1,,,,,1,,1,,1,1,1,,,,,,,,,,,,,,,,,,,,,,,,
Ascent Childrens Health Services,,3214 Winchester Drive,,Benton,AR,72015,2929,501-326-6160,http://www.ascentchs.com,34.593047,-92.555958,1,,,,,1,,,,,,,1,,,,,,,,,,,,,,,,,,,,,,,
Saline Memorial Hospital,,1 Medical Park Drive,,Benton,AR,72015,,501-776-6600,http://www.salinememorial.org,34.572905,-92.585083,1,1,,,,,,1,1,,,,1,,,,,,,,,,,,,,,,,,,,,,,
Counseling Clinic Inc,,112 Pearson Street,,Benton,AR,72015,3934,501-315-4224,http://www.counselingclinicinc.org,34.5632544,-92.5843435,1,,,1,,1,,,,1,1,,,,,,,,,,,,,,,,,,,,,,,,,
Rivendell Behavioral Health Services,,100 Rivendell Drive,,Benton,AR,72019,,501-316-1255,http://www.rivendaleofarkansas.com,34.613031,-92.532057,1,1,,,,1,,1,1,,,,1,,,,,,,,,,,,,,,,,,,,,,,
NE Arkansas Community MH Center Inc,DBA Mid South Health Systems,490 Broadmoor Drive,,Brinkley,AR,72021,,870-734-3202,http://www.mshs.org,34.9047913,-91.1946785,1,,1,,,1,,1,,,1,1,,,,,,,,,,,,,,,,,,,,,,,,
Pointe Outpatient,Saline,2213 North Reynolds Road,Suite 1,Bryant,AR,72022,,501-847-0081,http://www.thepointebhs.com,34.615846,-92.499153,1,,1,,,1,,,,,,,,,,,,,,,,,,,,,,,,,,,,,,
Professional Counseling Associates,Cabot Clinic,405 North 2nd Street,,Cabot,AR,72023,,501-843-3503,http://www.pca-ar.org/,34.9763435,-92.0146511,1,,,1,,1,,,,1,,,,,,,,,,,,,,,,,,,,,,,,,,
Pointe Outpatient,Cabot,203 Westport Drive,Suite B,Cabot,AR,72023,,501-843-9233,http://www.thepointebhs.com,34.9803475,-92.0425944,1,,1,,,1,,,,,,,1,,,,,,,,,,,,,,,,,,,,,,,
Community Service Inc,,119 Shake Rag Road,,Clinton,AR,72031,,501-745-2956,http://www.csiyouth.com,35.574454,-92.452731,1,,1,,,,,,,1,,,,,,,,,,,,,,,,,,,,,,,,,,
Birch Tree Communities Inc,Clinton,1303 Highway 65 South,,Clinton,AR,72031,,501-315-3344,http://birchtree.org,35.5767887,-92.4510395,1,,1,,,1,,1,,1,1,1,,,,,,,,,,,,,,,,,,,,,,,,
PFH/Health Resources of Arkansas Inc,Clinton Behavioral Health Clinic,244 Highway 65 North,Suite 6,Clinton,AR,72031,,866-533-1765,http://www.pfh.org,35.5908669,-92.4544201,1,,,1,,1,,,,,,,1,,,,,,,,,,,,,,,,,,,,,,,
Birch Tree Communities Inc,,132 Lower Ridge Road,,Conway,AR,72032,,501-317-1357,http://birchtree.org,35.1117467,-92.4179237,1,,1,,,,,1,,1,1,1,,,,,,,,,,,,,,,,,,,,,,,,
Western Arkansas Counseling and,Guidance Ctr Inc/Franklin Cnty Clinic,1600 North 18th Street,,Ozark,AR,72949,,479-452-6650,http://www.wagc.org,35.5030138,-93.8451847,1,,,1,,1,,1,1,1,1,1,1,,,,,,,,,,,,,,,,,,,,,,,
Community Service Inc,,203 North 4th Street,,Ozark,AR,72949,,479-667-5855,http://www.csiyouth.com,35.4878191,-93.8280889,1,,1,,,1,,,,1,,1,,,,,,,,,,,,,,,,,,,,,,,,
Western Arkansas Counseling and,Guidance Center/Crawford County Clinic,2705 Oak Lane,Suites A and B,Van Buren,AR,72956,,479-474-8084,http://www.wacgc.org,35.4410602,-94.3311672,1,,,1,,1,,1,,1,1,1,1,,,,,,,,,,,,,,,,,,,,,,,
Western Arkansas Counseling and,Guidance Center/Scott County Clinic,1857 Rice Street,,Waldron,AR,72958,,479-637-2468,http://www.wacgc.org,34.90411,-94.111952,1,,,1,,1,,1,,1,1,1,1,,,,,,,,,,,,,,,,,,,,,,,
Perspectives Behavioral Hlth Mgmt LLC,,949 North Main Street,,Mulberry,AR,72947,,479-997-2766,http://www.pbhm.com,35.509481,-94.052141,1,,,,,1,,1,1,1,,1,,,,,,,,,,,,,,,,,,,,,,,,
Perspectives Behavioral Hlth Mgmt LLC,,1200 West Center Street,,Greenwood,AR,72936,,479-996-1494,http://www.pbhm.com,35.220116,-94.275109,1,,,,,1,,1,1,1,,1,1,,,,,,,,,,,,,,,,,,,,,,,
Western Arkansas Counseling and,Guidance Center/Logan County Clinic,174 North Welsh Avenue,,Booneville,AR,72927,,479-452-6650,http://www.wacgc.org,35.138381,-93.917773,1,,,1,,1,,1,,1,1,1,1,,,,,,,,,,,,,,,,,,,,,,,
Ozark Guidance Center Inc,,1200 West Walnut Street,Suite 1400,Rogers,AR,72756,,479-725-6000,http://,36.333775,-94.129167,1,,,,1,1,,,,,,,1,,,,,,,,,,,,,,,,,,,,,,,
Ozark Guidance Center Inc,Adult Intensive Servs at Springhouse,4912 Springhouse Drive,,Springdale,AR,72762,,479-750-2020,http://www.ozarkguidance.org,36.1660104,-94.1851025,1,,,1,,,,1,,,1,,1,,,,,,,,,,,,,,,,,,,,,,,
Pointe Outpatient ,Conway,2215 East Oak Street,Suite 100,Conway,AR,72032,4634,501-336-0511,http://www.thepointebhs.com,35.090219,-92.39568,1,,1,,,1,,,,,,,1,,,,,,,,,,,,,,,,,,,,,,,
Conway Regional Health System,,2302 College Avenue,,Conway,AR,72034,,501-450-2385,http://www.conwayregional.org/seniorhealthservices,35.084875,-92.458458,1,1,,,,,,,,,,,,,,,,,,,,,,,,,,,,,,,,,,
North Metro Medical Center,Transitions,1400 Braden Street,,Jacksonville,AR,72076,,501-985-7135,http://www.northmetromed.com,34.873582,-92.124839,1,1,,,,,,,,,,,,,,,,,,,,,,,,,,,,,,,,,,
Professional Counseling Associates,Jacksonville Clinic,1109 Burman Drive,,Jacksonville,AR,72076,,501-982-7515,http://www.pca-ar.org/,34.866089,-92.12115,1,,,1,,1,,,,1,,,,,,,,,,,,,,,,,,,,,,,,,,
Professional Counseling Associates,Lonoke Clinic,109 West 2nd Street,Second and Depot Streets,Lonoke,AR,72086,,501-676-3151,http://www.pca-ar.org,34.785246,-91.900144,1,,,1,,1,,,,1,,,,,,,,,,,,,,,,,,,,,,,,,,
Birch Tree Communities Inc,Malvern,1628 East Page Street,,Malvern,AR,72104,,501-303-3167,http://birchtree.org,34.3646751,-92.795782,1,,1,,,1,,1,,1,1,1,,,,,,,,,,,,,,,,,,,,,,,,
Therapeutic Family Services,,829 Halbert Street,,Malvern,AR,72104,,501-332-4400,http://,34.3763388,-92.8268391,1,,1,,,1,,1,,1,,,1,,,,,,,,,,,,,,,,,,,,,,,
Ouachita Behavioral Health/ Wellness,Malvern Office,1615 Martin Luther King Boulevard,,Malvern,AR,72104,2233,501-332-5236,http://www.hsccs.org,34.3854615,-92.827927,1,,,1,,,,1,,1,,1,1,,,,,,,,,,,,,,,,,,,,,,,
Baptist Health Medical Center/HSC,Behavioral Health,1001 Schneider Drive,,Malvern,AR,72104,,501-332-7360,http://baptist-health.org,34.360145,-92.785549,1,1,,,,,,1,,,,,1,,,,,,,,,,,,,,,,,,,,,,,
Counseling Associates Inc,Morrilton Clinic,8 Hospital Drive,,Morrilton,AR,72110,4510,501-354-1561,http://caiinc.org,35.168548,-92.71985,1,,,1,,1,,,,1,1,,,,,,,,,,,,,,,,,,,,,,,,,
PFH DBA Dayspring Behavioral Health,Morrilton Clinic,1300 Highway 9 South,,Morrilton,AR,72110,,501-208-5911,http://pfh.org,35.1596117,-92.7142871,1,,1,,,1,,,,1,,,,,,,,,,,,,,,,,,,,,,,,,,
Community Service Inc,,100 South Cherokee Street,,Morrilton,AR,72110,,501-354-4589,http://www.csiyouth.com,35.1538092,-92.7503717,1,,1,,,1,,,1,1,,,,,,,,,,,,,,,,,,,,,,,,,,
Life Strategies of Arkansas LLC,,2135 Malcolm Avenue,,Newport,AR,72112,,870-523-8004,http://www.lifestrategiesar.com,35.606881,-91.254622,1,,1,,,1,,1,1,1,1,1,1,,,,,,,,,,,,,,,,,,,,,,,
Birch Tree Communities Inc,Newport,210 3rd Street,,Newport,AR,72112,,501-315-3344,http://,35.605932,-91.2792769,1,,1,,,1,,1,,1,1,1,,,,,,,,,,,,,,,,,,,,,,,,
Unity Health Harris Medical Center,Senior Care,1205 McLain Street,,Newport,AR,72112,,870-512-3002,http://www.unity-health.org,35.608362,-91.26499,1,1,,,,1,,,,,1,1,1,,,,,,,,,,,,,,,,,,,,,,,
AO/Health Resources of Arkansas Inc,Newport Clinic,1507 North Pecan Street,,Newport,AR,72112,,866-533-1758,http://pfh.org,35.620121,-91.264546,1,,,1,,1,,,,,,,1,,,,,,,,,,,,,,,,,,,,,,,
Woodridge Behavioral Care of,Forrest City,1521 Albert Street,,Forrest City,AR,72335,,870-633-3200,http://woodridgecare.com,35.015804,-90.773445,1,,,,,1,,,,,,1,1,,,,,,,,,,,,,,,,,,,,,,,
BridgeWay Hospital,,21 Bridgeway Road,,Maumelle,AR,72113,,501-771-1500,http://www.thebridgeway.com/,34.821989,-92.354083,1,1,,,,1,,1,1,1,,,1,,,,,,,,,,,,,,,,,,,,,,,
Methodist Behavioral Hospital,,1601 Murphy Drive,,Maumelle,AR,72113,,501-803-3388 x4308,http://www.methodistfamily.org,34.876795,-92.394417,1,1,,,,1,,,1,,,,1,,,,,,,,,,,,,,,,,,,,,,,
Eugene J Towbin Healthcare Center,,2200 Fort Roots Drive (116A),,North Little Rock,AR,72114,,501-257-1000,http://www.littlerock.va.gov/,34.7743815,-92.2958307,1,,,,,1,,,1,,1,1,1,,,,,,,,,,,,,,,,,,,,,,,
Ascent Childrens Health Services,,4107 Richards Road,,North Little Rock,AR,72117,2653,501-955-2220,http://www.ascentchs.com,34.791431,-92.213774,1,,,,,1,,,,,,,1,,,,,,,,,,,,,,,,,,,,,,,
Professional Counseling Associates,Community Support Program,4354 Stockton Drive,,North Little Rock,AR,72117,,501-955-7600,http://www.pca-ar.org/,34.784589,-92.217573,1,,,1,,1,,,,1,1,1,,,,,,,,,,,,,,,,,,,,,,,,
Professional Counseling Associates,Sherwood Clinic,7800 Highway 107,,Sherwood,AR,72120,5200,501-835-4174,http://www.pca-ar.org/,34.825855,-92.231297,1,,,1,,1,,,,1,,,,,,,,,,,,,,,,,,,,,,,,,,
AO/Health Resources of Arkansas Inc,Cedar Mountain Day Treatment,931 Highway 5,,Rose Bud,AR,72137,,866-533-1766,http://www.aoinc.org,35.288618,-92.081999,1,,,1,,,,1,,,,1,1,,,,,,,,,,,,,,,,,,,,,,,
Unity Health,Clearview Unit,1200 South Main Street,,Searcy,AR,72143,,501-278-3366,http://,35.2338917,-91.7320829,1,1,,,,,,,,,,,1,,,,,,,,,,,,,,,,,,,,,,,
AO/Health Resources of Arkansas Inc,Searcy Clinic,3302 East Moore Avenue,,Searcy,AR,72143,,501-268-4181,http://pfh.org,35.252915,-91.69404,1,,,1,,1,,,,,,,1,,,,,,,,,,,,,,,,,,,,,,,
Southeast AR Behavioral Healthcare,Sheridan Clinic,301 North Oak Street,,Sheridan,AR,72150,,870-942-5101,http://www.sabhs.org,34.308838,-92.401455,1,,,1,,1,,,,1,1,,,,,,,,,,,,,,,,,,,,,,,,,
Pointe Outpatient,Sheridan,201 South Rose Street,,Sheridan,AR,72150,,870-917-2171,http://www.thepointebhs.com,34.3058383,-92.4027217,1,,1,,,1,,,,,,,1,,,,,,,,,,,,,,,,,,,,,,,
Pointe Outpatient,Stuttgart,123 East 3rd Street,,Stuttgart,AR,72160,,870-673-9370,http://www.thepointebhs.com,34.500406,-91.551496,1,,1,,,1,,,,,,,1,,,,,,,,,,,,,,,,,,,,,,,
Southeast AR Behavioral Healthcare,Stuttgart Clinic,121 Commercial Drive,Suite B,Stuttgart,AR,72160,,870-673-1633,http://www.sabhs.org,34.476783,-91.554907,1,,,1,,1,,,,1,1,1,1,,,,,,,,,,,,,,,,,,,,,,,
Treatment Homes Inc,,700 West 4th Street,,Little Rock,AR,72201,,501-372-5039,http://www.treatmenthomes.org,34.746312,-92.278383,1,,1,,,1,,,,,,,,,,,,,,,,,,,,,,,,,,,,,,
UAMS PRI Child Study Center,,1210 Wolfe Street,,Little Rock,AR,72202,,501-364-5150,http://www.uams.edu,34.739213,-92.2932189,1,,1,,,1,,,1,1,,,1,,,,,,,,,,,,,,,,,,,,,,,
Little Rock Community MH Center,,1020 West Daisy L Gatson Bates Drive,,Little Rock,AR,72202,,501-371-9058,http://,34.737202,-92.284406,1,,,1,,,,,,1,1,1,,,,,,,,,,,,,,,,,,,,,,,,
New Beginnings Behav Hlth Servs LLC,,7107 West 12th Street,Suite 201,Little Rock,AR,72204,,501-663-1837,http://nbbhs.org,34.741466,-92.354013,1,,1,,,1,,1,,,,,1,,,,,,,,,,,,,,,,,,,,,,,
Centers for Youth and Families,Little Rock Outpatient Services,6601 West 12th Street,,Little Rock,AR,72204,,501-666-4949,http://www.cfyf.org,34.740705,-92.35008,1,,1,,,1,,,,1,,,1,,,,,,,,,,,,,,,,,,,,,,,
Centers for Youth and Families,Day Treatment Program,6601 West 12th Street,,Little Rock,AR,72204,,501-771-5511,http://www.cfyf.org,34.740705,-92.35008,1,,,,,1,,,1,1,,,,,,,,,,,,,,,,,,,,,,,,,,
United Methodist Childrens Home Inc,Arkansas CARES,2002 South Fillmore Street,Building 7,Little Rock,AR,72204,,501-906-4928,http://www.methodistfamily.org/services/in-patient-treatment-programs/arkansas-cares/,34.7338297,-92.338363,1,,,,1,1,,,,1,,,1,,,,,,,,,,,,,,,,,,,,,,,
Centers for Youth and Families,,6501 West 12th Street,Sturgis Building,Little Rock,AR,72204,,501-666-8686,http://www.centersforyouthandfamilies.org,34.740621,-92.347502,1,,,,,1,,,,,,,1,,,,,,,,,,,,,,,,,,,,,,,
John L McClellan Memorial VAMC,Mental Health 116/NLR,4300 West 7th Street,,Little Rock,AR,72205,,501-257-1000,http://,34.74614,-92.3203982,1,,,,,,,,,,,,,,,,,,,,,,,,,,,,,,,,,,,
University of Arkansas for Medical,Sciences Department of Psychiatry,4224 Shuffield Drive,,Little Rock,AR,72205,,501-526-8100,http://www.uams.edu,34.747193,-92.319639,1,,,,1,1,1,,,,,,1,,,,,,,,,,,,,,,,,,,,,,,
UAMS Medical Center,,4301 West Markham Street,,Little Rock,AR,72205,7101,501-686-7000,http://www.uams.edu/medcenter,34.7492719,-92.3198281,1,1,,,,1,,1,,,,,1,,,,,,,,,,,,,,,,,,,,,,,
Youth Home Inc,Behavioral Health Services of Arkansas,10 Corporate Hill Drive,Suite 330,Little Rock,AR,72205,4528,501-954-7470,http://www.BHSArkansas.org,34.7524103,-92.3869366,1,,1,,,1,,,1,1,,1,1,,,,,,,,,,,,,,,,,,,,,,,
Living Hope Southeast,,10025 West Markham Street,Suite 210,Little Rock,AR,72205,2178,501-663-5473,http://www.lhsoutheast.com,34.753035,-92.385692,1,,1,,,1,,1,1,1,1,1,1,,,,,,,,,,,,,,,,,,,,,,,
Saint Vincent Infirmary Medical Center,Saint Vincent Center for BH,2 Street Vincent Circle,,Little Rock,AR,72205,,501-552-3000,http://,34.748634,-92.341512,1,1,,,,,,1,,,1,,1,,,,,,,,,,,,,,,,,,,,,,,
Little Rock Community MH Center,,1100 North University,Suite 200,Little Rock,AR,72207,,501-686-9300,http://www.lrcmhc.com,34.761729,-92.341997,1,,,1,,1,,1,,1,1,,1,,,,,,,,,,,,,,,,,,,,,,,
Pointe Outpatient,Little Rock,1405 North Pierce Street,Suite 101,Little Rock,AR,72207,,501-603-2147,http://www.thepointebhs.com,34.764802,-92.337588,1,,1,,,1,,,,,,,1,,,,,,,,,,,,,,,,,,,,,,,
Baptist Health Medical Center,Little Rock,11401 Interstate 30,,Little Rock,AR,72209,,501-202-7501,http://www.baptist-health.com/,34.661502,-92.402555,1,1,,,,,,,,,,,1,,,,,,,,,,,,,,,,,,,,,,,
Youth Home Inc,Adolescent Psychiatric Treatment Prog,20400 Colonel Glenn Road,,Little Rock,AR,72210,,501-821-5500,http://www.youthhome.org,34.74175,-92.49964,1,,,,,1,,,1,,,,,,,,,,,,,,,,,,,,,,,,,,,
Pinnacle Pointe Behavioral Healthcare,,11501 Financial Centre Parkway,,Little Rock,AR,72211,3715,501-223-3322,http://pinnaclepointehospital.com,34.745934,-92.401799,1,1,,,,1,,,,,,1,1,,,,,,,,,,,,,,,,,,,,,,,
Life Strategies Counseling Inc,,1719 Merrill Drive,,Little Rock,AR,72212,4009,501-663-2199,http://www.lscihelp.com,34.7709387,-92.4000974,1,,1,,,,,1,,1,,,,,,,,,,,,,,,,,,,,,,,,,,
Life Strategies of Arkansas LLC,,304 North 6th Street,,West Memphis,AR,72301,,870-702-7657,http://,35.149504,-90.176894,1,,1,,,1,,1,1,1,1,1,,,,,,,,,,,,,,,,,,,,,,,,
Logan Centers Inc,,835 South Woods Street,,West Memphis,AR,72301,,870-735-2271,http://,35.139243,-90.184853,1,,,,1,1,,1,1,,,1,,,,,,,,,,,,,,,,,,,,,,,,
Ascent Childrens Health Services,,413 West Tyler Cove,,West Memphis,AR,72301,,870-733-1200,http://www.ascentchs.com,35.144002,-90.193534,1,,,,,1,,,,,,,1,,,,,,,,,,,,,,,,,,,,,,,
WoodRidge Northeast,,600 North 7th Street,,West Memphis,AR,72301,3235,870-394-7100,http://woodridgecare.com/,35.1513672,-90.1758548,1,,,,,1,,,,,1,,,,,,,,,,,,,,,,,,,,,,,,,
NE Arkansas Community MH Center Inc,DBA Mid South Health Systems,905 North 7th Street,,West Memphis,AR,72301,2001,870-735-5118,http://www.mshs.org,35.1554034,-90.1749324,1,,1,,,1,,1,,,1,1,,,,,,,,,,,,,,,,,,,,,,,,
NE Arkansas Community MH Center Inc,DBA Mid South Health Systems,209 South Lockard Street,,Blytheville,AR,72315,,870-763-2139,http://www.mshs.org,35.925356,-89.883493,1,,1,,,1,,,,,,,,,,,,,,,,,,,,,,,,,,,,,,
NE Arkansas Community MH Center Inc,DBA Mid South Health Systems,4451 North Washington Street,,Forrest City,AR,72335,7711,870-630-3880,http://www.mshs.org,35.049641,-90.800041,1,,1,,,1,,1,,,1,1,,,,,,,,,,,,,,,,,,,,,,,,
Kids for the Future Inc,,1825 East Broadway,,Forrest City,AR,72335,,870-630-2328,http://www.kidsforthefuture.com,35.01216,-90.771788,1,,1,,,1,,,,,,1,,,,,,,,,,,,,,,,,,,,,,,,
Logan Centers Inc,,1800 Lindauer Road,,Forrest City,AR,72335,,870-494-4600,http://,35.014902,-90.7684202,1,,1,,,1,,1,1,1,,,1,,,,,,,,,,,,,,,,,,,,,,,
Forrest City Medical Center,,1601 New Castle Road,,Forrest City,AR,72335,,870-261-0319,http://,35.025962,-90.779311,1,1,,,,,,,,,1,,,,,,,,,,,,,,,,,,,,,,,,,
Pointe Outpatient ,Forrest City,1521 North Washington Street,,Forrest City,AR,72335,,870-633-8092,http://www.thepointebhs.com,35.0251323,-90.788771,1,,1,,,1,,,,,,,1,,,,,,,,,,,,,,,,,,,,,,,
NE Arkansas Community MH Center Inc,DBA Mid South Health Systems,507 Missouri Street,,Helena,AR,72342,,870-338-3434,http://www.mshs.org,34.5226259,-90.5896076,1,,1,,,1,,,,,,,,,,,,,,,,,,,,,,,,,,,,,,
NE Arkansas Community MH Center Inc,DBA Mid South Health Systems,211 Missouri Street,,Helena,AR,72342,,870-338-3363,http://www.mshs.org,34.5223911,-90.5871043,1,,,1,,1,,,,1,1,1,,,,,,,,,,,,,,,,,,,,,,,,
NE Arkansas Community MH Center Inc,DBA Mid South Health Systems,801 Newman Drive,,Helena,AR,72342,8950,870-338-3900,http://mshs.org,34.5105034,-90.6244711,1,,1,,,1,,1,,,1,1,,,,,,,,,,,,,,,,,,,,,,,,
Life Strategies of Arkansas LLC,,63 North Carolina Street,,Marianna,AR,72360,,870-295-3300,http://,34.774153,-90.761051,1,,1,,,,,1,1,1,1,1,,,,,,,,,,,,,,,,,,,,,,,,
NE Arkansas Community MH Center Inc,DBA Mid South Health Systems,444 Atkins Boulevard,,Marianna,AR,72360,,870-295-4050,http://www.mshs.org,34.7707996,-90.7726746,1,,1,,,1,,1,,,1,1,,,,,,,,,,,,,,,,,,,,,,,,
PFH/Health Resources of Arkansas,,8 Medical Plaza,,Mountain Home,AR,72653,,866-308-9923,http://pfh.org,36.3410924,-92.3927778,1,,,1,,1,,,,,,,1,,,,,,,,,,,,,,,,,,,,,,,
Baxter Regional Medical Center,Hensley Behavioral Health Center,624 Hospital Drive,,Mountain Home,AR,72653,,870-508-1000,http://www.baxterregional.org,36.34295,-92.394419,1,1,,,,,,,,,,1,,,,,,,,,,,,,,,,,,,,,,,,
Families Inc of Arkansas,,700 South Main Street,,Mountain Home,AR,72653,,870-425-1041,http://www.familiesinc.net,36.334604,-92.38547,1,,1,,,1,,1,,1,,,1,,,,,,,,,,,,,,,,,,,,,,,
Health Resources of Arkansas,,319 Highway 14 South,P.O. Box 890,Yellville,AR,72687,,866-308-9927,http://pfh.org,36.22584,-92.681209,1,,,1,,1,,,,,,,1,,,,,,,,,,,,,,,,,,,,,,,
Pointe Outpatient,Marion,4001 Commercial Center Drive,Suite 5,Marion,AR,72364,,870-735-3015,http://www.thepointebhs.com,35.18952,-90.22295,1,,1,,,1,,,,,,,1,,,,,,,,,,,,,,,,,,,,,,,
Preferred Family Health,DBA Dayspring Behavioral Health,1227 Highway 77,Suite 2,Marion,AR,72364,,870-394-4643,http://AOINC.org,35.1859539,-90.1844249,1,,1,,,1,,1,,1,,1,1,,,,,,,,,,,,,,,,,,,,,,,
Life Strategies of Arkansas LLC,,1718 Falls Boulevard North,,Wynne,AR,72396,,870-238-4014,http://,35.239556,-90.783254,1,,1,,,,,1,1,1,1,1,,,,,,,,,,,,,,,,,,,,,,,,
Valley Behavioral Health Systems,,10301 Mayo Drive,,Barling,AR,72923,,479-494-5700,http://www.valleybehavioral.com,35.341314,-94.3130752,1,1,,,,1,,,,,1,1,1,,,,,,,,,,,,,,,,,,,,,,,
Valley Behavioral Health Systems,,815 Fort Street,Suite A,Barling,AR,72923,,479-494-5760,http://www.valleybehavioral.com,35.3283354,-94.3060926,1,,1,,,1,,,,1,,,1,,,,,,,,,,,,,,,,,,,,,,,
PFH/Dayspring of Arkansas,,2711 Oak Lane,Suite 2,Van Buren,AR,72956,,479-471-6892,http://www.pfh.org,35.4420689,-94.330738,1,,1,,,,,1,,,,,1,,,,,,,,,,,,,,,,,,,,,,,
Pointe Outpatient,Searcy,403 Poplar Street,Suite A,Searcy,AR,72143,,501-279-9220,http://www.thepointebhs.com,35.2435919,-91.6945365,1,,1,,,1,,,,,,,1,,,,,,,,,,,,,,,,,,,,,,,
Western Arkansas Counseling and,Guidance Center,3111 South 70th Street,,Fort Smith,AR,72903,,479-452-6650,http://www.wacgc.org,35.3519009,-94.3552539,1,,,1,,1,,1,,1,1,1,1,,,,,,,,,,,,,,1,,,,,,,,,
Unity Health Formerly White County Med,Compass Unit,1200 South Main Street,,Searcy,AR,72143,,501-278-3370,http://,35.2338917,-91.7320829,1,1,,,,,,,,,,,1,,,,,,,,,,,,,,,,,,,,,,,
Baptist Health Medical Center,Little Rock,9601 Baptist Health Drive,,Little Rock,AR,72205,,501-202-2000,http://,34.7445622,-92.381458,1,1,,,,,,,,,,,,,,,,,,,,,,,,,,,,,,,,,,
Life Strategies of Arkansas LLC,,320 Lee Street,,Earle,AR,72331,,870-792-7769,http://,35.267556,-90.454963,1,,1,,,,,1,1,1,1,1,,,,,,,,,,,,,,,,,,,,,,,,
Logan Centers Inc,,1792 Falls Boulevard,Suite 5,Wynne,AR,72396,,870-208-9333,http://www.logancenters.com,35.241644,-90.781955,1,,1,,,1,,1,1,,,,,,,,,,,,,,,,,,,,,,,,,,,
NE Arkansas Community MH Center Inc,DBA Mid South Health Systems,1201 South Falls Boulevard,,Wynne,AR,72396,,870-238-1135,http://mshs.org,35.2113834,-90.7895164,1,,1,,,,,1,,1,,,,,,,,,,,,,,,,,,,,,,,,,,
NE Arkansas Community MH Center Inc,DBA Mid South Health Systems,661 Addison Drive,,Wynne,AR,72396,,870-238-1135,http://www.mshs.org,35.2324866,-90.7867613,1,,1,,,1,,1,,,1,1,,,,,,,,,,,,,,,,,,,,,,,,
Families Inc of Arkansas,,1815 Pleasant Grove Road,,Jonesboro,AR,72401,7870,870-933-6886,http://www.familiesinc.com,35.861643,-90.64958,1,,1,,,1,,1,,1,,1,1,,,,,,,,,,,,,,,,,,,,,,,
Life Strategies Counseling Inc,,1217 Stone Street,,Jonesboro,AR,72401,,870-972-1268,http://www.lscihelp.com/,35.830782,-90.675935,1,,1,,,1,,1,1,1,,,,,,,,,,,,,,,,,,,,,,,,,,
NE Arkansas Community MH Center Inc,DBA Mid South Health Systems,2707 Browns Lane,,Jonesboro,AR,72401,7213,870-972-4000,http://www.mshs.org,35.8125904,-90.6870518,1,,1,,,1,,1,,,1,1,,,,,,,,,,,,,,,,,,,,,,,,
United Methodist Behavioral Hospital,Methodist Counseling Clinic,2239 South Caraway ,Suite M,Jonesboro,AR,72401,,870-910-3757,http://www.methodistfamily.org,35.817437,-90.678478,1,,1,,,1,,,,1,,,1,,,,,,,,,,,,,,,,,,,,,,,
Ascent Childrens Health Services,,806 Glendale Street,,Jonesboro,AR,72401,,870-933-9528,http://www.ascentchs.com,35.83396,-90.671958,1,,,,,1,,,,,,,1,,,,,,,,,,,,,,,,,,,,,,,
Preferred Family Healthcare,,1817 Woodsprings Road,Suite G,Jonesboro,AR,72401,,870-934-9800,http://pfh.org,35.8185283,-90.7288075,1,,1,,,1,,1,,1,,,1,,,,,,,,,,,,,,,,,,,,,,,
NE Arkansas Community MH Center Inc,DBA Mid South Health Systems,602 David Street,,Corning,AR,72422,,870-857-3655,http://www.mshs.org,36.4242508,-90.5816392,1,,1,,,1,,1,,,1,1,,,,,,,,,,,,,,,,,,,,,,,,
Hometown Behavioral Health Servs of ,Arkansas Inc,503 SE Lindsey Street,,Hoxie,AR,72433,,870-886-1333,http://www.hometownbhs.com,36.048856,-90.970418,1,,1,,,,,,,,,,,,,,,,,,,,,,,,,,,,,,,,,
Dayspring of Arkansas,,1600 SW Broad Street,,Hoxie,AR,72433,,870-886-7200,http://www.aoinc.org,36.039584,-90.984338,1,,1,,,1,,,,1,,1,1,,,,,,,,,,,,,,,,,,,,,,,
Cornerstone Community Counseling Corp,,609 West 3rd Street,,Imboden,AR,72434,,870-869-1500,http://,36.2037932,-91.1794282,1,,1,,,1,,,,1,,,,,,,,,,,,,,,,,,,,,,,,,,
NE Arkansas Community MH Center Inc,DBA Mid South Health Systems,28 Southpointe Drive,,Paragould,AR,72450,,870-236-2244,http://www.mshs.org,36.0584021,-90.4973286,1,,1,,,1,,1,,,1,1,,,,,,,,,,,,,,,,,,,,,,,,
Ascent Childrens Health Services,,1910 Rector Road,,Paragould,AR,72450,2004,870-240-8500,http://www.ascentchs.com,36.076414,-90.475412,1,,,,,1,,,,,,,1,,,,,,,,,,,,,,,,,,,,,,,
NE Arkansas Community MH Center Inc,DBA Mid South Health Systems,1011 Morgan Street,,Paragould,AR,72450,,870-239-4222,http://www.mshs.org,36.063221,-90.498959,1,,,1,,1,,,,1,1,1,,,,,,,,,,,,,,,,,,,,,,,,
Life Strategies Counseling Inc,,2420 Linwood Drive,Suite 1,Paragould,AR,72450,,870-236-5880,http://www.lscihelp.com,36.031363,-90.520899,1,,1,,,1,,1,,1,,,,,,,,,,,,,,,,,,,,,,,,,,
Families Inc of Arkansas,,2305 Old County Road,,Pocahontas,AR,72455,,870-892-1005,http://www.familiesinc.net,36.242029,-90.961712,1,,1,,,1,,1,,1,,,1,,,,,,,,,,,,,,,,,,,,,,,
NE Arkansas Community MH Center Inc,DBA Mid South Health Systems,2560 Old County Road,,Pocahontas,AR,72455,4118,870-892-7111,http://www.mshs.org,36.239175,-90.9617336,1,,1,,,1,,1,,,1,1,,,,,,,,,,,,,,,,,,,,,,,,
Five Rivers Medical Center,Behavioral Health,2801 Medical Center Drive,,Pocahontas,AR,72455,,870-892-6000 x6292,http://www.fiveriversmc.com/,36.289821,-90.997503,1,1,,,,,,,,,,,,,,,,,,,,,,,,,,,,,,,,,,
NE Arkansas Community MH Center Inc,DBA Mid South Health Systems,102 South Larkspur Street,,Walnut Ridge,AR,72476,,870-886-7924,http://www.mshs.org,36.0743679,-90.9698904,1,,1,,,1,,1,,1,1,1,1,,,,,,,,,,,,,,,,,,,,,,,
Ascent Childrens Health Services,,2040 Fitzhugh Street,,Batesville,AR,72501,,870-793-3334,http://www.ascentchs.com,35.768531,-91.63091,1,,,,,1,,,,,,,1,,,,,,,,,,,,,,,,,,,,,,,
Pointe Outpatient ,Batesville,2199 Harrison Street,,Batesville,AR,72501,,870-793-6774,http://www.thepointebhs.com,35.7695203,-91.6288013,1,,1,,,1,,,,,,,1,,,,,,,,,,,,,,,,,,,,,,,
Life Strategies Counseling Inc,,70 Batesville Boulevard,,Batesville,AR,72501,,870-793-3199,http://www.lscihelp.com,35.756039,-91.640968,1,,1,,,1,,1,,1,,,,,,,,,,,,,,,,,,,,,,,,,,
AO/Health Resources of Arkansas Inc,Batesville Behavioral Health Clinic,1800 Myers Street,,Batesville,AR,72503,,870-793-8925,http://www.aoinc.org,35.7622787,-91.6374769,1,,,1,,1,,1,,1,,,1,,,,,,,,,,,,,,,,,,,,,,,
Hope Behavioral Healthcare,,4 East Cherokee Village Mall,,Cherokee Village,AR,72529,,870-257-3336,http://,36.297844,-91.515973,1,,1,,,1,,,,1,,1,,,,,,,,,,,,,,,,,,,,,,,,
PFH/Health Resources of Arkansas Inc,Ash Flat Behavioral Healthcare,2012 Highway 62-412,,Hardy,AR,72542,,866-533-1761,http://www.pfh.org,36.2623197,-91.5255575,1,,,1,,1,,,,,,,1,,,,,,,,,,,,,,,,,,,,,,,
United Methodist Childrens Home Inc,,407 South 7th Street,,Heber Springs,AR,72543,,501-365-3022,http://www.methodistfamily.org,35.488758,-92.036547,1,,1,,,1,,,,1,,,1,,,,,,,,,,,,,,,,,,,,,,,
AO/Health Resources of Arkansas Inc,Heber Springs Clinic,1716 West Searcy Street,P.O. Box 441,Heber Springs,AR,72543,,866-533-1763,http://www.aoinc.org,35.491329,-92.047205,1,,,1,,1,,1,,1,,,1,,,,,,,,,,,,,,,,,,,,,,,
PFH/Health Resources of Arkansas Inc,Melbourne Clinic,1109 East Main Street,P.O. Box 536,Melbourne,AR,72556,,870-368-0224,http://pfh.org,36.0589989,-91.8873031,1,,,1,,1,,,,,,,1,,,,,,,,,,,,,,,,,,,,,,,
PFH/Health Resources of Arkansas Inc,Mountain View Clinic,106 Mountain Place Drive,,Mountain View,AR,72560,,866-533-1759,http://www.pfh.org,35.858921,-92.088921,1,,,1,,1,,,,,,,1,,,,,,,,,,,,,,,,,,,,,,,
Birch Tree Communities Inc,,218 Dogwood Hollow Street,,Mountain View,AR,72560,,870-269-7732,http://www.birchtreecommunities.org,35.8903771,-92.1045861,1,,1,,,1,,1,,1,1,1,,,,,,,,,,,,,,,,,,,,,,,,
Birch Tree Communities Inc,,105 Highway 9 North,,Oxford,AR,72565,,501-315-3344,http://Birchtree.org,36.183456,-91.927617,1,,1,,,1,,1,,1,1,1,,,,,,,,,,,,,,,,,,,,,,,,
PFH/Health Resources of Arkansas Inc,Salem Clinic,172 Highway 62 East,,Salem,AR,72576,,866-533-1762,http://www.pfh.org,36.364954,-91.8185863,1,,,1,,1,,,,,,,1,,,,,,,,,,,,,,,,,,,,,,,
North Arkansas Regional Medical Center,,620 North Main Street,,Harrison,AR,72601,,870-414-4142,http://www.narmc.com,36.2366395,-93.1085129,1,1,,,,,,1,1,1,1,,1,,,,,,,,,,,,,,,,,,,,,,,
Vantage Point,,121 Sawgrass Point,,Harrison,AR,72601,,870-391-3871,http://www.vantagepointnwa.com,36.2297936,-93.1076765,1,,,,,1,,,,1,,,1,,,,,,,,,,,,,,,,,,,,,,,
AO/Health Resources of Arkansas Inc,Harrison Clinic,4081 Highway 7 South,,Harrison,AR,72602,,866-308-9925,http://www.aoinc.org,36.275913,-93.080875,1,,,1,,1,,1,,,,,1,,,,,,,,,,,,,,,,,,,,,,,
Ozark Guidance Center Inc,,208 Highway 62 West,,Berryville,AR,72616,,870-423-2758,http://www.ozarkguidance.org,36.367116,-93.569837,1,,,1,,,,,,1,,,,,,,,,,,,,,,,,,,,,,,,,,
PFH/Health Resources of Arkansas Inc,Jasper Clinic,206 South Stone Street,,Jasper,AR,72641,,866-720-3784,http://www.pfh.org,36.0033065,-93.1879261,1,,,1,,,,,,,,,,,,,,,,,,,,,,,,,,,,,,,,
Dayspring of Arkansas,,316 Highway 65 North,Suite A,Marshall,AR,72650,,870-448-4727,http://dayspringbhs.com,35.9200318,-92.4212875,1,,1,,,1,,,,,,1,,,,,,,,,,,,,,,,,,,,,,,,
Piney Ridge Treatment Center LLC,DBA Piney Ridge Treatment Center,2805 East Zion Road,,Fayetteville,AR,72703,,479-587-1408,http://www.pineyridge.net,36.1290539,-94.120855,1,,,,,1,,,,,,1,1,,,,,,,,,,,,,,,,,,,,,,,
Springwoods Behavioral Health,,1955 West Truckers Drive,,Fayetteville,AR,72704,,479-973-6000,http://www.springwoodsbehavioral.com,36.1083685,-94.187247,1,1,,,,1,,1,1,1,1,1,1,,,,,,,,,,,,,,,,,,,,,,,
Ozark Guidance Center Inc,Miriam Enfield Center for Community MH,2508 SE 20th Street,,Bentonville,AR,72712,4008,479-273-9088,http://,36.349063,-94.181708,1,,,1,,1,,,,,,,,,,,,,,,,,,,,,,,,,,,,,,
Ozark Guidance Center Inc,,1104 North College Street,,Huntsville,AR,72740,,479-738-2878,http://www.ozarkguidance.org,36.09871,-93.737837,1,,,1,,1,,,,1,,,,,,,,,,,,,,,,,,,,,,,,,,
Dept of Human and Social Services,Behavioral Health Services Division,997594 Centennial Office Building,Suite 301,Pago Pago,AS,96799,,684-633-0315,http://www.dhss.as,-14.28212,-170.684012,1,,,1,,1,,,,1,,,1,,,,,,,,,,,,,,,,,,,,,,,
LBJ Tropical Medical Center,Psychiatric Department,Faga'alu Village,,Pago Pago,AS,96799,,684-633-1222 x406,http://,-14.2716616,-170.7016893,1,1,,,,,,1,,1,1,,1,,,,,,,,,,,,,,,,,,,,,,,
Southeastern Arizona Behavioral Health,Services Inc (SEABHS),404 West Rex Allen Drive,,Willcox,AZ,85643,1120,520-384-2521,http://seabhs.org,32.263496,-109.832456,1,,1,,,1,,1,1,1,1,1,1,,,,,,,,,,,,,,,,,,,,,,,
Perception Counseling,,36 West Franklin Street,,Tucson,AZ,85701,,520-623-7077,http://www.perception-counseling.com,32.226186,-110.972362,1,,1,,,1,,1,1,1,,1,,,,,,,,,,,,,,,,,,,,,,,,
CODAC Health Recovery and Wellness Inc,Child and Family Services,1080 South 10th Street,,Tucson,AZ,85701,,520-623-3533,http://codac.org,32.2085074,-110.9748831,1,,1,,,1,,,,,,,1,,,,,,,,,,,,,,,,,,,,,,,
Easter Seals Blake Foundation,,320 South Convent Avenue,,Tucson,AZ,85701,,520-622-3933,http://,32.216629,-110.972089,1,,1,,,1,,,,,,,,,,,,,,,,,,,,,,,,,,,,,,
La Frontera Arizona,Casa Lucero Young Adults,410 South 6th Avenue,,Tucson,AZ,85701,,520-838-5610,http://www.lafrontera.org,32.216877,-110.969004,1,,,1,,1,,,,,,1,1,,,,,,,,,,,,,,,,,,,,,,,
Sonora Behavioral Health Hospital ,,6050 North Corona Road,,Tucson,AZ,85704,,855-995-2929,http://www.sonorabehavioral.com,32.3167568,-111.007277,1,1,,,,1,,,1,,1,,1,,,,,,,,,,,,,,,,,,,,,,,
Chalet House,,6633 North Amahl Circle,,Tucson,AZ,85704,,520-812-6620,http://,32.3269364,-111.0095528,1,,,,,1,,,,,,1,1,,,,,,,,,,,,,,,,,,,,,,,
COPE Community Services Inc,Mesquite,2435 North Castro Avenue,,Tucson,AZ,85705,,520-622-8030,http://www.copecommunityservices.org,32.251539,-110.974553,1,,,1,,1,,,1,1,1,1,1,,,,,,,,,,,,,,,,,,,,,,,
CODAC Health Recovery and Wellness,CODAC on Alvernon,630 North Alvernon Way,Suite 161,Tucson,AZ,85711,,520-318-9222,http://www.codac.org/,32.2298363,-110.9091052,1,,1,,,1,,1,,1,,,1,,,,,,,,,,,,,,,,1,,,,,,,
Jewish Family and Childrens Services,Southern Arizona,4301 East 5th Street,,Tucson,AZ,85711,,520-795-0300,http://www.jfcstucson.org,32.2291535,-110.9007685,1,,1,,,1,,,,,,,,,,,,,,,,,,,,,,,,,,,,,,
COPE Community Services Inc,Craycroft Integrated Care Clinic,620 North Craycroft Road,,Tucson,AZ,85711,,520-519-8540,http://www.copecommunityservices.org,32.230039,-110.87505,1,,,1,,1,,,1,1,1,1,1,,,,,,,,,,,,,,,,,,,,,,,
Intermountain Health Service,,5055 East Broadway Boulevard,Suite C-104,Tucson,AZ,85711,,520-623-9833,http://www.ichd.net,32.2222241,-110.8846907,1,,1,,,1,,,,1,,1,,,,,,,,,,,,,,,,,,,,,,,,
ORielly Care Center,,350 North Wilmot Road,,Tucson,AZ,85711,,520-873-3000,http://www.carondelet.org/,32.22718,-110.857719,1,1,,,,,,1,,,,,1,,,,,,,,,,,,,,,,,,,,,,,
La Frontera Arizona,East Clinic,4891 East Grant Road,,Tucson,AZ,85712,,520-296-3296,http://www.lafronteraaz.org,32.2527649,-110.888965,1,,1,,,1,,1,,1,1,1,1,,,,,,,,,,,,,,,,,,,,,,,
Cornerstone Behavioral Health, El Dorado,1400 North Wilmot Road,,Tucson,AZ,85712,,520-222-8268,http://,32.2399692679601,-110.854926109314,1,1,,,,1,,1,1,,1,,,,,,,,,,,,,,,,,,,,,,,,,
Community Provider of Enrichment Servs,,4444 East Grant Road,Suite 116,Tucson,AZ,85712,,520-882-0090,http://www.cpes.com,32.2503398,-110.8978292,1,,1,,,1,,,,1,,,,,,,,,,,,,,,,,,,,,,,,,,
Community Provider of Enrichment Servs,Veracruz Program,3727 East Lee Street,,Tucson,AZ,85712,,520-884-7954 x115,http://www.cpes.com,32.242106,-110.912918,1,,,,,,,,,,,,,,,,,,,,,,,,,,,,,,,,,,,
Mirasol Inc,,3116 North Swan Road,,Tucson,AZ,85712,,520-546-3200,http://www.mirasol.net,32.262397,-110.892401,1,,,,,1,,,1,,,1,1,,,,,,,,,,,,,,,,,,,,,,,
La Frontera Arizona,New Life Center,1082 East Ajo Way,Suite 100,Tucson,AZ,85713,,520-741-3120,http://www.lafronteraarizona.org,32.177391,-110.954764,1,,1,,,1,,1,,1,,,1,,,,,,,,,,,,,,,,,,,,,,,
La Frontera Center,Mountain Rose,10841 North Thornydale Road,,Tucson,AZ,85713,,520-792-0591,http://,32.404167,-111.047523,1,,,,,,,,,,,1,,,,,,,,,,,,,,,,,,,,,,,,
La Frontera South Tuscon,Child/Family Center,502 West 29th Street,,Tucson,AZ,85713,,520-838-3946,http://www.lafronteraaz.org,32.1999752,-110.9762252,1,,,1,,1,,,,,,,,,,,,,,,,,,,,,,,,,,,,,,
Banner University Medical Center,South Campus,2800 East Ajo Way,,Tucson,AZ,85713,,520-874-2000,http://,32.1778717,-110.9295523,1,1,,,,,,1,,,,,,,,,,,,,,,,,,,,,,,,,,,,
La Frontera Southwest Case Management,,1210 East Pennsylvania Street,,Tucson,AZ,85714,1675,520-741-2351,http://,32.171372,-110.953717,1,,,1,,1,,1,1,1,1,1,1,,,,,,,,,,,,,,,,,,,,,,,
Arizonas Children Association,Outpatient Services,3716 East Columbia Street,,Tucson,AZ,85714,,520-622-7611,http://www.arizonaschildren.org,32.1720912,-110.9131759,1,,1,,,1,,,,,,,1,,,,,,,,,,,,,,,,,,,,,,,
Our Family Services Inc,,3830 East Bellevue Street,,Tucson,AZ,85716,,520-323-1708,http://www.ourfamilyservices.org,32.237578,-110.910764,1,,1,,,1,,,,1,,1,1,,,,,,,,,,,,,,,,,,,,,,,
CODAC Health Recovery and Wellness ,,3130 East Broadway,,Tucson,AZ,85716,,520-327-4505 x1119,http://www.codac.org,32.2210101,-110.9262585,1,,1,,,1,,1,1,1,1,1,1,,,,,,,,,,,,,,,,,,,,,,,
Southern Arizona Center Against,Sexual Assault,1600 North Country Club Road,,Tucson,AZ,85716,,520-327-1171,http://www.codac.org,32.241772,-110.926154,1,,1,,,1,,,,,,1,1,,,,,,,,,,,,,,,,,,,,,,,
CODAC Health Recovery and Wellness Inc,CODAC at Cobblestone,1075 East Fort Lowell Road,,Tucson,AZ,85719,,520-202-1960,http://www.codac.org,32.265267,-110.955122,1,,1,,,1,,,1,1,,,1,,,,,,,,,,,,,,,,,,,,,,,
Touchstone Behavioral Health (TBH),DBA Touchstone Health Services,1430 East Fort Lowell Road,Suite 100,Tucson,AZ,85719,,866-207-3882,http://www.touchstonehs.org,32.2644641,-110.9496836,1,,1,,,,,,,1,,,,,,,,,,,,,,,,,,,,,,,,,,
U of A,Department of Psychology,1503 East University Boulevard,Building 68,Tucson,AZ,85721,,520-621-1867,http://www.psychology.arizona.edu/node/715,32.232567,-110.949508,1,,1,,,1,,,,,1,,,,,,,,,,,,,,,,,,,,,,,,,
Southern Arizona VA Healthcare System,Mental Hygiene,3601 South 6th Avenue,,Tucson,AZ,85723,,520-792-1450 x5525,http://www.tucson.va.gov/services/Mental_Health_Services.asp,32.1812634,-110.9658852,1,,,,,1,,1,1,,,1,1,,,,,,,,,,,,,,,,,,,,,,,
Mirasol Inc,,10490 East Escalante Road,,Tucson,AZ,85730,,520-886-8828,http://www.mirasol.net,32.176287,-110.769102,1,,,,,1,,,,,,,,,,,,,,,,,,,,,,,,,,,,,,
COPE Community Services Inc,,8050 East Lakeside Parkway,,Tucson,AZ,85730,,520-584-5820,http://www.copecommunityservices.org,32.190008,-110.819081,1,,1,,,1,,1,,,1,1,1,,,,,,,,,,,,,,,,,,,,,,,
Sierra Tucson,,39580 South Lago Del Oro Parkway,,Tucson,AZ,85739,,855-719-3566,http://www.sierratucson.com,32.5170419,-110.8884831,1,,,,,1,,,1,,,,,,,,,,,,,,,,,,,,,,,,,,,
Pathways of Arizona,Tucson Northwest,3295 West Ina Road,Suite 150,Tucson,AZ,85741,,520-744-4376,http://www.pathwaysofaz.com,32.336906,-111.037424,1,,1,,,1,,1,1,,,1,1,,,,,,,,,,,,,,,,,,,,,,,
La Frontera Center,Thornydale Ranch,10845 North Thornydale Road,,Tucson,AZ,85742,,520-792-0591,http://,32.404179,-111.046955,1,,,,,,,,,,,1,,,,,,,,,,,,,,,,,,,,,,,,
Zarephath ,Sunset Circle,2194 West Painted Sunset Circle,,Tucson,AZ,85745,,855-810-2484,http://zrpath.com/,32.257749,-111.013577,1,,,,,,,,,,,,,,,,,,,,,,,,,,,,,,,,,,,
Intermountain Centers for,Human Develpoment,1100 West Fresno Street,,Tucson,AZ,85745,,520-721-1887,http://ICHD.net,32.2249264,-110.9908878,1,,1,,,1,,,,,,1,,,,,,,,,,,,,,,,,,,,,,,,
Cottonwood Tucson,,4110 West Sweetwater Drive,,Tucson,AZ,85745,,520-743-0411,http://www.cottonwoodtucson.com,32.2819584,-111.0524018,1,,,,,1,,,1,,1,1,,,,,,,,,,,,,,,,,,,,,,,,
COPE Community Services Inc,La Cholla,1501 West Commerce Court,,Tucson,AZ,85746,,520-741-3180,http://www.copecommunityservices.org,32.1310473,-110.9970602,1,,,1,,1,,,,1,,1,1,,,,,,,,,,,,,,,,,,,,,,,
Intermountain Centers for,Human Development,1020 South Harrison Road,,Tucson,AZ,85748,,520-721-1887,http://www.ichd.net,32.2084307,-110.7898251,1,,,,1,1,,,,1,,1,,,,,1,,,,,,,,,,,,,,,,,,,
The Villas,,6849 South Tackweed Way,,Tucson,AZ,85756,,520-276-8854,http://,32.127784,-110.887198,1,,,,,1,,1,1,1,1,,1,,,,,,,,,,,,,,,,,,,,,,,
ChangePoint Integrated Health,,2500 East Show Low Lake Road,Building A,Show Low,AZ,85901,,928-537-2951 x2266,http://www.ccc-az.org/,34.2019315,-110.014419,1,,1,,,1,,1,1,,,1,1,,,,,,,,,,,,,,,,,,,,,,,
Power Wellness Center,Outpatient,488 North Main Street,,Eagar,AZ,85925,,928-333-3036,http://www.nazcare.org,34.11936,-109.291536,1,,1,,,1,,,,1,1,1,1,,,,,,,,,,,,,,,,,,,,,,,
ChangePoint Integrated Health,,423 South Main Street,,Snowflake,AZ,85937,,928-536-6869,http://,34.5033553,-110.0790381,1,,1,,,1,,1,,1,,1,1,,,,,,,,,,,,,,,,,,,,,,,
Little Colorado ,Behavioral Health Centers,50 North Hopi Street,,Springerville,AZ,85938,,928-333-2683,http://www.lcbhc.org,34.133679,-109.282226,1,,1,,,1,,1,,1,,1,1,,,,,,,,,,,,,,,,,,,,,,,
Prescott VAMC,Flagstaff CBOC,1300 West University Avenue,Suite 200,Flagstaff,AZ,86001,,928-226-1056,http://www.visit18.med.va.gov/prescott,35.18462,-111.672511,1,,,,,,,,,,,,1,,,,,,,,,,,,,,,,,,,,,,,
Flagstaff Medical Center,Behavioral Health Services,1200 North Beaver Street,,Flagstaff,AZ,86001,,928-779-3366,http://www.nahealth.com,35.20832,-111.643986,1,1,,,,1,,,,,,,,,,,,,,,,,,,,,,,,,,,,,,
Behavioral Consultation Services Inc,,345 South River Run Road,Suite 200,Flagstaff,AZ,86001,,928-522-3780,http://www.behavioraz.com,35.1898425,-111.6374482,1,,1,,,,,,,,,,,,,,,,,,,,,,,,,,,,,,,1,,
Guidance Center,,2695 East Industrial Drive,,Flagstaff,AZ,86004,,928-527-1899,http://tgcaz.org,35.205456,-111.6076869,1,,,1,,1,,,1,1,,,,,,,,,,,,,,,,,,,,,,1,,1,,
Guidance Center,,2187 North Vickey Street,,Flagstaff,AZ,86004,6121,928-527-1899,http://tgcaz.org,35.2067519,-111.6066911,1,,,1,,1,,1,,1,,,,,,,,,,,,,,,,,,,,,,1,,1,,
Native Americans for Community Action,Family Health Center,1500 East Cedar Avenue,Suite 26,Flagstaff,AZ,86004,,928-773-1245 x260,http://www.nacainc.org,35.219337,-111.6212891,1,,1,,,1,,,,1,,,1,,,,,,,,,,,,,,,,,,,,,1,,
Southwest Behavioral and Health Servs,,1515 East Cedar Avenue,Suite B-2,Flagstaff,AZ,86004,,928-779-4550,http://www.sbhservices.org,35.2178672,-111.6215366,1,,,1,,1,,,,1,,,1,,,,,,,,,,,,,,,,,,,,,,,
Encompass Health Services ,,463 South Lake Powell Boulevard,,Page,AZ,86040,,928-645-5113,http://Encompass-az.org,36.909763,-111.46077,1,,,1,,,,,,1,,1,1,,,,,,,,,,,,,,,,,,,,,1,,
Tuba City Regional Healthcare Corp,,167 Main Street,,Tuba City,AZ,86045,,928-283-2831,http://,36.142493,-111.239625,1,,1,,,1,,,,1,,,1,,,,,,,,,,,,,,,,,,,,,1,,
Guidance Center,,220 West Grant Avenue,,Williams,AZ,86046,2535,928-635-4272,http://www.tgcaz.org,35.24941,-112.188793,1,,,1,,1,,,,1,,,1,,,,,,,,,,,,,,,,,,,,,,,
ChangePoint Integrated Health,,1015 East 2nd Street,,Winslow,AZ,86047,,928-289-4658,http://www.ccc-az.org,35.019624,-110.688326,1,,1,,,1,,1,1,1,,1,1,,,,,,,,,,,,,,,,,,,,,,,
Community Bridges Inc,Winslow Outpatient Services Center,110 East 2nd Street,,Winslow,AZ,86047,,928-289-1222,http://communitybridgesaz.org/,35.023441,-110.697422,1,,1,,,1,,,,,1,1,,,,,,,,,,,,,,,,,,,,1,,1,,
West Yavapai Guidance Clinic/Hillside,,642 Dameron Drive,,Prescott,AZ,86301,,928-445-5211,http://www.wygc.org,34.5518809,-112.4768401,1,,1,,,1,,1,1,1,,1,1,,,,,,,,,,,,,,,,,,,,,,,
West Yavapai Guidance Clinic,Ruth Street Outpatient,625 Hillside Avenue,,Prescott,AZ,86301,,928-445-5211,http://www.wygc.org,34.5530618,-112.4769518,1,,1,,,1,,1,1,1,,1,1,,,,,,,,,,,,,,,,,,,,,,,
West Yavapai Guidance Clinic,Haddon House,711 Hillside Avenue,,Prescott,AZ,86301,,928-710-0922,http://wygc.org,34.5529517,-112.4785266,1,,,,,,,1,,,,,1,,,,,,,,,,,,,,,,,,,,,,,
Canyon Crossing Recovery,Outpatient Treatment Center,819 West Gurley Street,Unit C,Prescott,AZ,86305,,800-651-7254,http://www.canyoncrossingrecovery.com,34.5426061,-112.4816235,1,,,,,1,,1,1,1,,1,,,,,,,,,,,,,,,,,,,,,,,,
Sequel Care of Arizona,,3170 Stillwater Drive,,Prescott,AZ,86305,7151,928-777-3280,http://,34.598997,-112.467138,1,,,,,1,,1,,1,1,1,,,,,,,,,,,,,,,,,,,,,,,,
Reflections Recovery Center,,957 Black Drive,Suite C,Prescott,AZ,86305,,866-790-7979,http://www.reflectionsrecoverycenter.com,34.566549,-112.483489,1,,1,,,1,,,,1,1,1,1,,,,,,,,,,,,,,,,,,,,,,,
Arrowhead Lodge,,5113 Arrowhead Drive,,Prescott,AZ,86305,,888-654-2800,http://www.arrowheadlodgerecovery.com,34.557328,-112.553867,1,,,,,1,,,1,1,1,1,,,,,,,,,,,,,,,,,,,,,,,,
Prescott VAMC,Mental Health Clinic (116A),500 State Highway 89 North,Building 161,Prescott,AZ,86313,5001,928-445-4860,http://,34.5538766,-112.45247,1,,1,,,,,1,1,1,,1,1,,,,,,,,,,,,,,,,,,,,,,,
West Yavapai Guidance Clinic,,3347 North Windsong Drive,,Prescott Valley,AZ,86314,,928-445-5211,http://WYGC.org,34.5911424,-112.3263009,1,1,,,,,,,,,,,,,,,,,,,,,,,,,,,,,,,,,,
Mingus Mountain Academy,Emily House,3801 North Robert Road,,Prescott Valley,AZ,86314,,602-335-2000,http://www.mmaaz.com,34.598028,-112.321095,1,,,,,1,,,,,,1,1,,,,,,,,,,,,,,,,,,,,,,,
Windhaven Psychiatric Hospital,Inpatient,3347 North Windsong Drive,,Prescott Valley,AZ,86314,,928-583-6411,http://www.wygc.org,34.5911424,-112.3263008,1,1,,,,,,1,1,,1,1,1,,,,,,,,,,,,,,,,,,,,,,,
Mingus Mountain Academy,,15801 East Don Carlos Drive,,Prescott Valley,AZ,86315,,602-335-2000,http://www.mmaaz.com,34.64357276,-112.1877158,1,,,,,1,,,1,,,1,1,,,,,,,,,,,,,,,,,,,,,,,
Spectrum Healthcare Group Inc,,452 West Finnie Flat Road,,Camp Verde,AZ,86322,,928-634-2236,http://www.spectrumhealthcare-group.org,34.56574,-111.862108,1,,,1,,1,,,,1,,1,,,,,,,,,,,,,,,,,,,,,,,,
West Yavapai Guidance Clinic,Chino Valley Clinic,5556 West Road 3 North,,Chino Valley,AZ,86323,,928-445-5211,http://,34.7748836,-112.5013935,1,,1,,,1,,1,,1,,,,,,,,,,,,,,,,,,,,,,,,,,
Spectrum Healthcare,Womans World,8 East Cottonwood Street,Building B,Cottonwood,AZ,86326,,928-634-2236,http://www.spectrumhealthcare-group.org,34.7290827,-112.0298465,1,,,,,1,,,,,,1,,,,,,,,,,,,,,,,,,,,,,,,
Spectrum Healthcare Group Inc,,8 East Cottonwood Street,,Cottonwood,AZ,86326,,928-634-2236,http://www.Spectrumhealthcare-group.org,34.728959,-112.02718,1,,,1,,1,,,,1,,1,1,,,,,,,,,,,,,,,,,,,,,,,
Prescott VAMC,Cottonwood Clinic,501 South Willard Street,,Cottonwood,AZ,86326,,928-649-1523 x6001,http://www.prescott.va.gov/,34.73112,-112.028669,1,,,,,1,,,,,,1,1,,,,,,,,,,,,,,,,,,,,,,,
Mingus Mountain Academy,Farrington House,100 South Dewey Road,,Dewey,AZ,86327,,602-335-2000,http://www.mmaaz.com,34.541574,-112.251819,1,,,,,1,,,,,,1,1,,,,,,,,,,,,,,,,,,,,,,,
Spring Ridge Academy,,13690 South Burton Road,,Mayer,AZ,86333,,928-632-4602 x1140,http://springridgeacademy.com,34.346319,-112.166957,1,,,,,1,,,1,,,,,,,,,,,,,,,,,,,,,,,,,,,
Alternative to Meds Center,,40 Goodrow Lane,,Sedona,AZ,86336,,928-282-3744,http://www.medicationwithdrawal.com,34.8642284,-111.7982198,1,,,,,1,,,,1,,1,1,,,,,,,,,,,,,,,,,,,,,,,
Spectrum Healthcare,,2880 Hopi Drive,,Sedona,AZ,86336,,928-634-2236,http://www.spectrumhealthcare-group.org,34.864519,-111.811123,1,,,1,,1,,,,,,,,,,,,,,,,,,,,,,,,,,,,,,
Southwest Behavioral and Health Servs,,2215 Hualapai Mountain Road,Suites H and I,Kingman,AZ,86402,,928-753-9387,http://www.SBHServices.org,35.1933028,-114.0263049,1,,1,,,,,1,,1,,,1,,,,,,,,,,,,,,,,,,,,,,,
Social Services Interagency,,1940 Mesquite Avenue,,Lake Havasu City,AZ,86403,,928-453-5800 x255,http://lhcinteragency.org,34.478655,-114.334608,1,,1,,,1,,,,,,,,,,,,,,,,,,,,,,,,,,,,,,
Mohave Mental Health Clinic Inc,Children and Family Services,151 Riviera Drive,Suite B,Lake Havasu City,AZ,86403,,928-757-8111 x6641,http://www.mmhc-inc.org,34.480728,-114.335644,1,,1,,,1,,1,1,1,,,1,,,,,,,,,,,,,,,,,,,,,,,
Mohave Mental Health Clinic Inc,,3505 Western Avenue,,Kingman,AZ,86409,,928-757-8111,http://www.mmhc-inc.org,35.2254,-114.04084,1,,1,,,1,,1,,1,1,1,1,,,,,,,,,,,,,,,,,,,,,,,
Mohave Mental Health Clinic Inc,,1741 Sycamore Avenue,,Kingman,AZ,86409,,928-757-8111 x3100,http://www.mmhc-inc.org,35.222647,-114.038852,1,1,,,,,,,,,,,1,,,,,,,,,,,,,,,,,,,,,,,
Mohave Mental Health Clinic Inc,,915 Airway Street,,Kingman,AZ,86409,,928-718-4800 x6641,http://www.mohavementalhealthclinic.com,35.2253972,-114.0419654,1,,1,,,1,,1,,1,,,1,,,,,,,,,,,,,,,,,,,,,,,
Mohave Mental Health Clinic Inc,,1080 Sheldon Avenue,,Kingman,AZ,86409,,928-757-8111 x3371,http://www.mmhc-inc.org,35.220058,-114.040401,1,,,,,,,1,1,,,,1,,,,,,,,,,,,,,,,,,,,,,,
Solutions One Stop Counseling,,1099 Hancock Road,"Suites A, B and C",Bullhead City,AZ,86442,,928-704-4767,http://,35.1081953,-114.6093158,1,,1,,,1,,,1,1,,1,1,,,,,,,,,,,,,,,,,,,,,,,
Navajo Health Foundation/Sage Memorial,Hospital Behavioral Health Clinic,Highways 191 and 264,,Ganado,AZ,86505,,928-755-4586,http://,35.71069137,-109.5435829,1,,1,,,1,,,1,1,,,1,,,,,,,,,,,,,,,,,,,,,1,,
La Frontera Arizona,,1441 South No Le Hace,,Tucson,AZ,85713,1120,520-622-5805,http://,32.203646,-111.027741,1,,,,,,,,,,1,,,,,,,,,,,,,,,,,,,,,,,,,
Easter Seals Blake Foundation,,1060 South 5th Avenue,,Yuma,AZ,85364,,928-276-9225,http://,32.7081937,-114.6260432,1,,1,,,1,,,,,,,,,,,,,,,,,,,,,,,,,,,,,,
Pathways,,3818 West 16th Street,,Yuma,AZ,85364,,928-317-0177,http://,32.6984861,-114.6674905,1,,1,,,1,,,,,,1,,,,,,,,,,,,,,,,,,,,,,,,
Mohave Mental Health Clinic Inc,,2187 Swanson Avenue,,Lake Havasu City,AZ,86403,,928-855-3432,http://www.mmhc-inc.org,34.474162,-114.322536,1,,1,,,1,,1,,1,1,1,1,,,,,,,,,,,,,,,,,,,,,,,
Verde Valley Medical Center,,269 South Candy Lane,,Cottonwood,AZ,86326,,928-634-2251,http://www.nahealth.com/ourservices/behavioralhealthservices,34.735776,-112.029256,1,1,,,,,,,,,,,,,,,,,,,,,,,,,,,,,,,,,,
Mohave Mental Health Clinic Inc,,1145 Marina Boulevard,,Bullhead City,AZ,86442,,928-758-5905,http://www.mmhc-inc.org,35.100988,-114.608019,1,,1,,,1,,1,,1,1,1,1,,,,,,,,,,,,,,,,,,,,,,,
Southwest Behavioral Health,Bullhead City Clinic,2580 Highway 95,Suite 120,Bullhead City,AZ,86442,,928-763-7776,http://www.sbhservices.org,35.092483,-114.597374,1,,1,,,1,,1,1,1,,1,1,,,,,,,,,,,,,,,,,,,,,,,
West Yavapai Guidance Clinic,Windsong Center,3345 North Windsong Drive,,Prescott Valley,AZ,86314,,928-445-5211,http://www.wygc.org,34.591503,-112.326238,1,,1,,,1,,1,1,1,,1,1,,,,,,,,,,,,,,,,,,,,,,,
West Yavapai Guidance Clinic,Cortez,505 South Cortez Street,,Prescott,AZ,86303,4319,928-445-5211,http://www.wygc.org,34.5337,-112.468439,1,,1,,,1,,,1,1,,1,1,,,,,,,,,,,,,,,,,,,,,,,
Pathways of Arizona,,1161 North El Dorado Place,Suite 103,Tucson,AZ,85715,,520-748-7108,http://www.pathways.com,32.2375043,-110.8563548,1,,1,,,1,,1,1,1,,,,,,,,,,,,,,,,,,,,,,,,,,
Easter Seals Blake Foundation,,7750 East Broadway,Suite A100,Tucson,AZ,85710,,520-327-1529 x7730,http://www.blakefoundation.easterseals.com/,32.2203768,-110.8265115,1,,1,,,1,,,,,,,,,,,,,,,,,,,,,,,,,,,,,,
Arizonas Children Association,,942 East Fry Boulevard,,Sierra Vista,AZ,85635,2640,520-224-9100,http://www.arizonaschildrenassociation.com,31.5546287,-110.289292,1,,,1,,1,,,,1,,,1,,,,,,,,,,,,,,,,,,,,,,,
Southern Arizona VA Healthcare System,VA Sierra Vista CBOC Medical Clinic,101 North Coronado Drive,Suite A,Sierra Vista,AZ,85635,,520-459-1529,http://,31.556688,-110.275986,1,,,,,,,,1,,,,1,,,,,,,,,,,,,,,,,,,,,,,
Canyon Vista Medical Center,Behavioral Health Unit,5700 East Highway 90,,Sierra Vista,AZ,85635,9110,520-263-2000,http://www.canyonvistamedicalcenter.com/,31.554586,-110.230876,1,1,,,,,,,,,,,1,,,,,,,,,,,,,,,,,,,,,,,
Partners in Recovery,Wickenburg Campus,811 North Tegner Street,Suite 121,Wickenburg,AZ,85390,,928-684-5131,http://www.partnersinrecovery.us.org,33.97614,-112.73525,1,,1,,,,,1,,1,1,1,1,,,,,,,,,,,,,,,,,,,,,,,
Meadows,,1655 North Tegner Street,,Wickenburg,AZ,85390,,928-684-3926,http://www.themeadows.com,33.982724,-112.7390236,1,1,,,,1,,,1,,,1,,,,,,,,,,,,,,,,,,,,,,,,
Rosewood Centers for Eating Disorders,,36075 South Rincon Road,,Wickenburg,AZ,85390,,800-845-2211,http://www.rosewoodranch.com,34.024671,-112.742035,1,1,,,,1,,,,,1,,1,,,,,,,,,,,,,,,,,,,,,,,
New Horizon Youth Homes Inc,New Horizon Yth Homes Stottler House,760 East Stottler Place,,Chandler,AZ,85225,,480-722-2730,http://www.nhyh.org,33.3331309,-111.827783,1,,,,,1,,,,,,1,,,,,,,,,,,,,,,,,,,,,,,,
Horizon Health and Wellness,,100 Tillbury Road,,Kearny,AZ,85137,,520-896-6050,http://,33.0613457,-110.9066775,1,,1,,,,,,,1,,,1,,,,,,,,,,,,,,,,,,,,,,,
Terros Health,West McDowell Recovery Center,4616 North 51st Avenue,Suites 108,Phoenix,AZ,85031,,602-278-1414,http://www.terros.org/,33.5048953,-112.1697574,1,,1,,,,,,,1,1,1,,,,,,,,,,,,,,,,,,,,,,,,
Valle del Sol,,1209 South 1st Avenue,,Phoenix,AZ,85003,,602-258-6797,http://www.valledelsol.com,33.4356309,-112.0746715,1,,1,,,1,,,,1,1,,1,,,,,,,,,,,,,,,,,,,,,,,
